[
  {
    "name": "Azercosmos - Baku - Main Control Ground Station",
    "latitude": 40.466124,
    "longitude": 49.489581,
    "region": "Asia-Pacific",
    "country": "Azerbaijan",
    "metro_area": "Baku",
    "certification": "TIER 4 CERTIFIED TELEPORT",
    "wta_member": "Yes"
  },
  {
    "name": "Optus Belrose Teleport",
    "latitude": -33.717513,
    "longitude": 151.21217,
    "region": "Asia-Pacific",
    "country": "Australia",
    "metro_area": "Sydney",
    "certification": "TIER 4 CERTIFIED TELEPORT",
    "wta_member": "Yes"
  },
  {
    "name": "Planetcast Noida Teleport",
    "latitude": 28.610681,
    "longitude": 77.367708,
    "region": "Asia-Pacific",
    "country": "India",
    "metro_area": "New Delhi",
    "certification": "TIER 4 CERTIFIED TELEPORT",
    "wta_member": "Yes"
  },
  {
    "name": "Primacom Teleport",
    "latitude": -6.2241283,
    "longitude": 106.6646763,
    "region": "Asia-Pacific",
    "country": "Indonesia",
    "metro_area": "Jakarta",
    "certification": "TIER 4 CERTIFIED TELEPORT",
    "wta_member": "Yes"
  },
  {
    "name": "Singtel Bukit Timah Hill Teleport - Singapore",
    "latitude": 1.35187,
    "longitude": 103.790984,
    "region": "Asia-Pacific",
    "country": "Singapore",
    "metro_area": "Singapore",
    "certification": "TIER 4 CERTIFIED TELEPORT",
    "wta_member": "Yes"
  },
  {
    "name": "Singtel Seletar ES, Lentor Ave Singapore",
    "latitude": 1.39726,
    "longitude": 103.834153,
    "region": "Asia-Pacific",
    "country": "Singapore",
    "metro_area": "Singapore",
    "certification": "TIER 4 CERTIFIED TELEPORT",
    "wta_member": "Yes"
  },
  {
    "name": "Telstra Gnangara (Perth) Teleport",
    "latitude": -31.8044413,
    "longitude": 115.8877912,
    "region": "Asia-Pacific",
    "country": "Australia",
    "metro_area": "Perth",
    "certification": "PROVISIONAL CERTIFICATION",
    "wta_member": "Yes"
  },
  {
    "name": "Telstra Oxford Falls (Sydney) Australia",
    "latitude": -33.729647,
    "longitude": 151.230919,
    "region": "Asia-Pacific",
    "country": "Australia",
    "metro_area": "Sydney",
    "certification": "PROVISIONAL CERTIFICATION",
    "wta_member": "Yes"
  },
  {
    "name": "Telstra Stanley Teleport Hong Kong",
    "latitude": 22.197381,
    "longitude": 114.220875,
    "region": "Asia-Pacific",
    "country": "China",
    "metro_area": "Hong Kong",
    "certification": "PROVISIONAL CERTIFICATION",
    "wta_member": "Yes"
  },
  {
    "name": "A1 Telekom Austria - Aflenz Earth Station",
    "latitude": 47.554603,
    "longitude": 15.292072,
    "region": "Europe",
    "country": "Austria",
    "metro_area": "Aflenz",
    "certification": "TIER 4 CERTIFIED TELEPORT",
    "wta_member": "Yes"
  },
  {
    "name": "Arqiva Chalfont Grove Teleport (London) UK",
    "latitude": 51.615214,
    "longitude": -0.576008,
    "region": "Europe",
    "country": "United Kingdom",
    "metro_area": "London",
    "certification": "TIER 4 CERTIFIED TELEPORT",
    "wta_member": "Yes"
  },
  {
    "name": "AXESS Networks (Central European Telecom Services GmbH (CETel GmbH))",
    "latitude": 50.852639,
    "longitude": 7.48005799999999,
    "region": "Europe",
    "country": "Germany",
    "metro_area": "Cologne",
    "certification": "TIER 3 CERTIFIED TELEPORT",
    "wta_member": "Yes"
  },
  {
    "name": "Cyta Makarios Teleport",
    "latitude": 34.860481,
    "longitude": 33.382169,
    "region": "Europe",
    "country": "Cyprus",
    "metro_area": "Nicosia",
    "certification": "TIER 4 CERTIFIED TELEPORT",
    "wta_member": "Yes"
  },
  {
    "name": "Eutelsat Rambouillet Teleport",
    "latitude": 48.5494,
    "longitude": 1.7826,
    "region": "Europe",
    "country": "France",
    "metro_area": "Paris",
    "certification": "TIER 4 CERTIFIED TELEPORT",
    "wta_member": "Yes"
  },
  {
    "name": "Hellas Sat Space Center",
    "latitude": 34.859097,
    "longitude": 33.3846729,
    "region": "Europe",
    "country": "Cyprus",
    "metro_area": "Nicosia",
    "certification": "TIER 4 CERTIFIED TELEPORT\n",
    "wta_member": "Yes"
  },
  {
    "name": "Horizon Teleports - Moosburg Teleport",
    "latitude": 48.4669009,
    "longitude": 11.963507,
    "region": "Europe",
    "country": "Germany",
    "metro_area": "Munich",
    "certification": "TIER 3 CERTIFIED TELEPORT",
    "wta_member": "Yes"
  },
  {
    "name": "IABG Ottobrunn Teleport",
    "latitude": 48.051301,
    "longitude": 11.659835,
    "region": "Europe",
    "country": "Germany",
    "metro_area": "Munich",
    "certification": "PROVISIONAL CERTIFICATION",
    "wta_member": "Yes"
  },
  {
    "name": "Intelsat Fuchsstadt Teleport",
    "latitude": 50.118247,
    "longitude": 9.923354,
    "region": "Europe",
    "country": "Germany",
    "metro_area": "Frankfurt",
    "certification": "TIER 4 CERTIFIED TELEPORT",
    "wta_member": "Yes"
  },
  {
    "name": "Santander Teleport",
    "latitude": 43.449398,
    "longitude": -3.87687500000004,
    "region": "Europe",
    "country": "Spain",
    "metro_area": "Bilbao",
    "certification": "TIER 4 CERTIFIED TELEPORT",
    "wta_member": "Yes"
  },
  {
    "name": "Satellite Mediaport Services Ltd. (SMS)",
    "latitude": 52.358004,
    "longitude": -1.331305,
    "region": "Europe",
    "country": "United Kingdom",
    "metro_area": "Birmingham",
    "certification": "PROVISIONAL CERTIFICATION",
    "wta_member": "Yes"
  },
  {
    "name": "STN Ljubjana Teleport",
    "latitude": 46.149324,
    "longitude": 14.631131,
    "region": "Europe",
    "country": "Slovenia",
    "metro_area": "Ljubljana",
    "certification": "TIER 3 CERTIFIED TELEPORT",
    "wta_member": "Yes"
  },
  {
    "name": "Telekom Austria Aflenz",
    "latitude": 47.554466,
    "longitude": 15.324985,
    "region": "Europe",
    "country": "Austria",
    "metro_area": "Aflenz",
    "certification": "TIER 4 CERTIFIED TELEPORT",
    "wta_member": "Yes"
  },
  {
    "name": "Telespazio - Fucino Space Centre “Piero Fanti”",
    "latitude": 41.975809,
    "longitude": 13.60184,
    "region": "Europe",
    "country": "Italy",
    "metro_area": "Rome",
    "certification": "TIER 4 CERTIFIED TELEPORT",
    "wta_member": "Yes"
  },
  {
    "name": "VIVACOM - Plana Satellite Station - PlanaSat",
    "latitude": 42.48266,
    "longitude": 23.445552,
    "region": "Europe",
    "country": "Bulgaria",
    "metro_area": "Sofia",
    "certification": "TIER 4 CERTIFIED TELEPORT",
    "wta_member": "Yes"
  },
  {
    "name": "AXESS Networks (Axesat) Bogota Teleport - Bogota, Colombia",
    "latitude": 4.6713077,
    "longitude": -74.1617961,
    "region": "Latin America",
    "country": "Colombia",
    "metro_area": "Bogota",
    "certification": "TIER 3 CERTIFIED TELEPORT",
    "wta_member": "Yes"
  },
  {
    "name": "Elara Comunicaciones",
    "latitude": 19.296691,
    "longitude": -99.155804,
    "region": "Latin America",
    "country": "Mexico",
    "metro_area": "Mexico City",
    "certification": "TIER 3 CERTIFIED TELEPORT",
    "wta_member": "No"
  },
  {
    "name": "Servicio Satelital S.A.",
    "latitude": -34.4107537,
    "longitude": -58.7191239,
    "region": "Latin America",
    "country": "Argentina",
    "metro_area": "Buenos Aires",
    "certification": "PROVISIONAL CERTIFICATION",
    "wta_member": "No"
  },
  {
    "name": "Telespazio Rio de Janeiro Teleport",
    "latitude": -22.897061,
    "longitude": -43.18029,
    "region": "Latin America",
    "country": "Brazil",
    "metro_area": "Rio de Janeiro",
    "certification": "PROVISIONAL CERTIFICATION",
    "wta_member": "Yes"
  },
  {
    "name": "du Samacom - Al Qudra",
    "latitude": 24.943003,
    "longitude": 55.351512,
    "region": "Middle East/Africa",
    "country": "United Arab Emirates",
    "metro_area": "Dubai",
    "certification": "TIER 4 CERTIFIED TELEPORT",
    "wta_member": "Yes"
  },
  {
    "name": "Etisalat Sharjah Teleport",
    "latitude": 25.250944,
    "longitude": 55.832201,
    "region": "Middle East/Africa",
    "country": "United Arab Emirates",
    "metro_area": "Sharjah",
    "certification": "TIER 4 CERTIFIED TELEPORT",
    "wta_member": "No"
  },
  {
    "name": "COMSAT Santa Paula Teleport",
    "latitude": 34.402178,
    "longitude": -119.073409,
    "region": "North America",
    "country": "United States",
    "metro_area": "Los Angeles",
    "certification": "TIER 4 CERTIFIED TELEPORT",
    "wta_member": "Yes"
  },
  {
    "name": "COMSAT Southbury Teleport",
    "latitude": 41.451766,
    "longitude": -73.289344,
    "region": "North America",
    "country": "United States",
    "metro_area": "New York",
    "certification": "TIER 4 CERTIFIED TELEPORT",
    "wta_member": "Yes"
  },
  {
    "name": "Hawaii Pacific Teleport - Kapolei",
    "latitude": 21.336052,
    "longitude": -158.088412,
    "region": "North America",
    "country": "United States",
    "metro_area": "Honolulu",
    "certification": "PROVISIONAL CERTIFICATION",
    "wta_member": "Yes"
  },
  {
    "name": "Intelsat Atlanta Teleport",
    "latitude": 33.664479,
    "longitude": -84.274063,
    "region": "North America",
    "country": "United States",
    "metro_area": "Atlanta",
    "certification": "PROVISIONAL CERTIFICATION",
    "wta_member": "Yes"
  },
  {
    "name": "Intelsat Mountainside Teleport",
    "latitude": 39.599098,
    "longitude": -77.759132,
    "region": "North America",
    "country": "United States",
    "metro_area": "Washington DC",
    "certification": "TIER 4 CERTIFIED TELEPORT",
    "wta_member": "Yes"
  },
  {
    "name": "Intelsat Napa Teleport",
    "latitude": 38.244876,
    "longitude": -122.28063,
    "region": "North America",
    "country": "United States",
    "metro_area": "San Francisco",
    "certification": "PROVISIONAL CERTIFICATION",
    "wta_member": "Yes"
  },
  {
    "name": "Intelsat Riverside Teleport",
    "latitude": 33.796575,
    "longitude": -117.087806,
    "region": "North America",
    "country": "United States",
    "metro_area": "Los Angeles",
    "certification": "PROVISIONAL CERTIFICATION",
    "wta_member": "Yes"
  },
  {
    "name": "USEI Brewster Teleport",
    "latitude": 48.14714,
    "longitude": -119.692698,
    "region": "North America",
    "country": "United States",
    "metro_area": "Seattle",
    "certification": "TIER 4 CERTIFIED TELEPORT",
    "wta_member": "Yes"
  },
  {
    "name": "USEI Vernon Valley Teleport",
    "latitude": 41.202149,
    "longitude": -74.527208,
    "region": "North America",
    "country": "United States",
    "metro_area": "New York",
    "certification": "TIER 4 CERTIFIED TELEPORT",
    "wta_member": "Yes"
  },
  {
    "name": "Orange Bercenay-en-Othe Teleport",
    "latitude": 48.236479,
    "longitude": 3.8856305,
    "region": "Europe",
    "country": "France",
    "metro_area": "Paris",
    "certification": "TIER 4 CERTIFIED TELEPORT",
    "wta_member": "No"
  },
  {
    "name": "Gomedia Satcom\n",
    "latitude": 37.4247463,
    "longitude": 15.0462205,
    "region": "Europe",
    "country": "Italy",
    "metro_area": "Cantania",
    "certification": "PROVISIONAL CERTIFICATION\n",
    "wta_member": "No"
  },
  {
    "name": "Stellar Hürth Teleport - Cologne Germany",
    "latitude": 50.8628068,
    "longitude": 6.8475641,
    "region": "Europe",
    "country": "Germany",
    "metro_area": "Cologne",
    "certification": "PROVISIONAL CERTIFICATION\n",
    "wta_member": "Yes"
  },
  {
    "name": "Globecast France - Teleport de Sainte-Assise",
    "latitude": 48.5502226,
    "longitude": 2.5585055,
    "region": "Europe",
    "country": "France",
    "metro_area": "Paris",
    "certification": "TIER 4 CERTIFIED TELEPORT",
    "wta_member": "Yes"
  },
  {
    "name": "Speedcast Macaé Teleport",
    "latitude": -22.3855556,
    "longitude": -41.8227778,
    "region": "Latin America\n",
    "country": "Brazil\n",
    "metro_area": "Rio de Janeiro\n",
    "certification": "TIER 3 CERTIFIED TELEPORT\n",
    "wta_member": null
  },
  {
    "name": "Nilesat Cairo - The Egyptian Satellite Co.",
    "latitude": 29.966004448752777,
    "longitude": 31.00335319292807,
    "region": "Middle East/Africa\n",
    "country": "Egypt",
    "metro_area": "Cairo",
    "certification": "TIER 4 CERTIFIED TELEPORT\n",
    "wta_member": "No"
  },
  {
    "name": "Speedcast Lima",
    "latitude": -12.2483,
    "longitude": -76.8914,
    "region": "Latin America\n",
    "country": "Peru",
    "metro_area": "Lima",
    "certification": "TIER 3 CERTIFIED TELEPORT",
    "wta_member": "Yes"
  },
  {
    "name": "Hispasat Lurin\n",
    "latitude": -12.28614,
    "longitude": -76.84593,
    "region": "Latin America\n",
    "country": "Peru",
    "metro_area": "Lima",
    "certification": "TIER 4 CERTIFIED TELEPORT",
    "wta_member": "Yes"
  },
  {
    "name": "Telespazio - Lario Space Centre",
    "latitude": 46.158725,
    "longitude": 9.409699,
    "region": "Europe",
    "country": "Italy",
    "metro_area": "Milan",
    "certification": "TIER 4 CERTIFIED TELEPORT",
    "wta_member": "Yes"
  },
  {
    "name": "KTsat - Kumsan Earth Station",
    "latitude": 36.124835,
    "longitude": 127.488705,
    "region": "Asia-Pacific",
    "country": "South Korea\n",
    "metro_area": "Seoul",
    "certification": "TIER 4 CERTIFIED TELEPORT",
    "wta_member": "Yes"
  },
  {
    "name": "Speedcast Mawson Lakes Teleport (Adelaide)",
    "latitude": -34.81735,
    "longitude": 138.619292,
    "region": "Asia-Pacific",
    "country": "Australia",
    "metro_area": "Adelaide\n",
    "certification": "TIER 4 CERTIFIED TELEPORT\n",
    "wta_member": "Yes"
  },
  {
    "name": "Speedcast Miami",
    "latitude": 25.916769,
    "longitude": -80.225213,
    "region": "North America\n",
    "country": "United States\n",
    "metro_area": "Miami",
    "certification": "TIER 3 CERTIFIED TELEPORT\n",
    "wta_member": "Yes"
  },
  {
    "name": "Etisalat Jebel Ali Teleport",
    "latitude": 25.0306,
    "longitude": 55.1247,
    "region": "Middle East/Africa",
    "country": "United Arab Emirates\n",
    "metro_area": "Dubai",
    "certification": "TIER 4 CERTIFIED TELEPORT\n",
    "wta_member": "No"
  },
  {
    "name": "Arqiva Crawley Court Teleport",
    "latitude": 51.111584,
    "longitude": -1.399832,
    "region": "Europe",
    "country": "United KIngdom\n",
    "metro_area": "London",
    "certification": "TIER 4 CERTIFIED TELEPORT\n",
    "wta_member": "Yes"
  },
  {
    "name": "Speedcast Singapore\n",
    "latitude": 1.339598,
    "longitude": 103.75101,
    "region": "Asia-Pacific",
    "country": "Singapore",
    "metro_area": "Singapore",
    "certification": "TIER 4 CERTIFIED TELEPORT",
    "wta_member": "Yes"
  },
  {
    "name": "Hawaii Pacific Teleport Guam",
    "latitude": 13.418494,
    "longitude": 144.752154,
    "region": "Asia-Pacific",
    "country": "Guam",
    "metro_area": "Pulantat",
    "certification": "PROVISIONAL CERTIFICATION",
    "wta_member": "Yes"
  },
  {
    "name": "Yahsat Abu Dhabi",
    "latitude": 24.4403516,
    "longitude": 54.827013,
    "region": "Middle East/Africa",
    "country": "United Arab Emirates",
    "metro_area": "Abu Dhabi\n",
    "certification": "TIER 4\n",
    "wta_member": "No"
  },
  {
    "name": "SageNet Marietta Teleport",
    "latitude": 33.927258,
    "longitude": -84.497973,
    "region": "North America\n",
    "country": "United States\n",
    "metro_area": "Atlanta",
    "certification": "TIER 4 CERTIFIED TELEPORT\n",
    "wta_member": "Yes"
  },
  {
    "name": "Speedcast Biddinghuizen Teleport ",
    "latitude": 52.463037,
    "longitude": 5.709504,
    "region": "Europe\n",
    "country": "Netherlands",
    "metro_area": "Amsterdam",
    "certification": "TIER 3 CERTIFIED TELEPORT\n",
    "wta_member": "Yes"
  },
  {
    "name": "Speedcast Aberdeen",
    "latitude": 57.2066027,
    "longitude": -2.2097053,
    "region": "Europe",
    "country": "United Kingdom\n",
    "metro_area": "Aberdeen",
    "certification": "TIER 3 CERTIFIED TELEPORT\n",
    "wta_member": "Yes"
  },
  {
    "name": "SpeedCast Bayswater Teleport (Perth)",
    "latitude": -31.914436,
    "longitude": 115.9199594,
    "region": "Asia-Pacific",
    "country": "Australia",
    "metro_area": "Perth",
    "certification": "TIER 3 CERTIFIED TELEPORT",
    "wta_member": "Yes"
  },
  {
    "name": "Hellas Sat Athens Teleport",
    "latitude": 37.9309783,
    "longitude": 23.8760376,
    "region": "Europe",
    "country": "Greece",
    "metro_area": "Athens",
    "certification": "TIER 4 CERTIFIED TELEPORT",
    "wta_member": "Yes"
  },
  {
    "name": "Speedcast Kuala Lumpur Teleport\n",
    "latitude": 3.048717,
    "longitude": 101.697271,
    "region": "Asia-Pacific",
    "country": "Malaysia",
    "metro_area": "Kuala Lumpur\n",
    "certification": "TIER 3 CERTIFIED TELEPORT",
    "wta_member": "Yes"
  },
  {
    "name": "Es'hailSat Al Ghuwayriyah Gateway",
    "latitude": 25.77955,
    "longitude": 51.21181,
    "region": "Middle East/Africa",
    "country": "Qatar",
    "metro_area": "Doha",
    "certification": "TIER 4 CERTIFIED TELEPORT",
    "wta_member": "Yes"
  },
  {
    "name": "ABS (HK)Limited",
    "latitude": -6.200678,
    "longitude": 106.91276,
    "region": "Asia-Pacific",
    "country": "Indonesia",
    "metro_area": "Jakarta",
    "certification": null,
    "wta_member": "Yes"
  },
  {
    "name": "ABS Subic Bay Teleport",
    "latitude": 14.759274,
    "longitude": 120.279902,
    "region": "Asia-Pacific",
    "country": "Philippines",
    "metro_area": "Manila",
    "certification": null,
    "wta_member": "Yes"
  },
  {
    "name": "A-Cosmos  Ibaraki",
    "latitude": 36.5316666666667,
    "longitude": 140.373055555556,
    "region": "Asia-Pacific",
    "country": "Japan",
    "metro_area": "Tokyo",
    "certification": null,
    "wta_member": "Yes"
  },
  {
    "name": "A-Cosmos Osaka Teleport",
    "latitude": 34.69824,
    "longitude": 135.514733,
    "region": "Asia-Pacific",
    "country": "Japan",
    "metro_area": "Osaka",
    "certification": null,
    "wta_member": "Yes"
  },
  {
    "name": "ASIX Hong Kong",
    "latitude": 22.213292,
    "longitude": 114.205087,
    "region": "Asia-Pacific",
    "country": "China",
    "metro_area": "Hong Kong",
    "certification": null,
    "wta_member": "Yes"
  },
  {
    "name": "A-Socmos Yokohama",
    "latitude": 35.5055841,
    "longitude": 139.5139215,
    "region": "Asia-Pacific",
    "country": "Japan",
    "metro_area": "Yokohama",
    "certification": null,
    "wta_member": "Yes"
  },
  {
    "name": "Encompass Singapore Teleport",
    "latitude": 1.382595,
    "longitude": 103.973085,
    "region": "Asia-Pacific",
    "country": "Singapore",
    "metro_area": "Singapore",
    "certification": null,
    "wta_member": "Yes"
  },
  {
    "name": "Globecast Singapore\n",
    "latitude": 1.292419,
    "longitude": 103.794746,
    "region": "Asia-Pacific",
    "country": "Singapore",
    "metro_area": "Singapore",
    "certification": null,
    "wta_member": "Yes"
  },
  {
    "name": "Globecast New Delhi Teleport",
    "latitude": 28.549695,
    "longitude": 77.250222,
    "region": "Asia-Pacific",
    "country": "India",
    "metro_area": "New Delhi",
    "certification": null,
    "wta_member": "Yes"
  },
  {
    "name": "Globecast, MLC Centre Sydney Australia",
    "latitude": -33.868481,
    "longitude": 151.209429,
    "region": "Asia-Pacific",
    "country": "Australia",
    "metro_area": "Sydney",
    "certification": null,
    "wta_member": "Yes"
  },
  {
    "name": "Hughes Gurgaon",
    "latitude": 28.498994,
    "longitude": 77.066277,
    "region": "Asia-Pacific",
    "country": "India",
    "metro_area": "New Delhi",
    "certification": null,
    "wta_member": "Yes"
  },
  {
    "name": "Lamhas Satellite Services, Mumbai",
    "latitude": 19.062808,
    "longitude": 72.998169,
    "region": "Asia-Pacific",
    "country": "India",
    "metro_area": "Mumbai",
    "certification": null,
    "wta_member": "Yes"
  },
  {
    "name": "MEASAT Kuala Lumpur Cyberjaya, Malaysia",
    "latitude": 2.935224,
    "longitude": 101.658728,
    "region": "Asia-Pacific",
    "country": "Malaysia",
    "metro_area": "Kuala Lumpur",
    "certification": null,
    "wta_member": "Yes"
  },
  {
    "name": "MEASAT Teleport Langkawi Island",
    "latitude": 6.370172,
    "longitude": 99.817702,
    "region": "Asia-Pacific",
    "country": "Malaysia",
    "metro_area": "Langkawi",
    "certification": null,
    "wta_member": "Yes"
  },
  {
    "name": "Optus Oxford Falls Teleport",
    "latitude": -33.728077,
    "longitude": 151.236909,
    "region": "Asia-Pacific",
    "country": "Australia",
    "metro_area": "Sydney",
    "certification": null,
    "wta_member": "Yes"
  },
  {
    "name": "Planetcast Kochi Teleport",
    "latitude": 9.8773214,
    "longitude": 76.3068657,
    "region": "Asia-Pacific",
    "country": "India",
    "metro_area": "Kochi",
    "certification": null,
    "wta_member": "Yes"
  },
  {
    "name": "Planetcast Mayur Nagar Teleport (Mumbai)",
    "latitude": 19.1516219,
    "longitude": 72.8864739,
    "region": "Asia-Pacific",
    "country": "India",
    "metro_area": "Mumbai",
    "certification": null,
    "wta_member": "Yes"
  },
  {
    "name": "Singtel Sentosa Teleport",
    "latitude": 1.247268,
    "longitude": 103.835496,
    "region": "Asia-Pacific",
    "country": "Singapore",
    "metro_area": "Singapore",
    "certification": null,
    "wta_member": "Yes"
  },
  {
    "name": "Speedcast Winnellie (Darwin)",
    "latitude": -12.4305978,
    "longitude": 130.9008357,
    "region": "Asia-Pacific",
    "country": "Australia",
    "metro_area": "Darwin",
    "certification": null,
    "wta_member": "Yes"
  },
  {
    "name": "SupremeSat Kandy Teleport",
    "latitude": 7.2755903,
    "longitude": 80.725058,
    "region": "Asia-Pacific",
    "country": "Sri Lanka",
    "metro_area": "Colombo",
    "certification": null,
    "wta_member": "Yes"
  },
  {
    "name": "SSC Yatharagga Satellite Station - USN Western Australia Satellite Station (SSC)",
    "latitude": -29.0447061,
    "longitude": 115.3510219,
    "region": "Asia-Pacific",
    "country": "Australia",
    "metro_area": "Perth",
    "certification": null,
    "wta_member": "Yes"
  },
  {
    "name": "We Are I.T. Philippines, Incorporated",
    "latitude": 14.594343,
    "longitude": 121.05599,
    "region": "Asia-Pacific",
    "country": "Philippines",
    "metro_area": "Manila",
    "certification": null,
    "wta_member": "Yes"
  },
  {
    "name": "Arqiva Docklands Teleport",
    "latitude": 51.499439,
    "longitude": 0.058083,
    "region": "Europe",
    "country": "United Kingdom",
    "metro_area": "London",
    "certification": null,
    "wta_member": "Yes"
  },
  {
    "name": "Arqiva London UK central",
    "latitude": 51.51801,
    "longitude": -0.136304,
    "region": "Europe",
    "country": "United Kingdom",
    "metro_area": "London",
    "certification": null,
    "wta_member": "Yes"
  },
  {
    "name": "Arqiva Thurleigh Teleport",
    "latitude": 52.238116,
    "longitude": -0.483303,
    "region": "Europe",
    "country": "United Kingdom",
    "metro_area": "London",
    "certification": null,
    "wta_member": "Yes"
  },
  {
    "name": "Cyta Ermis Teleport",
    "latitude": 34.80184,
    "longitude": 33.3720000000001,
    "region": "Europe",
    "country": "Cyprus",
    "metro_area": "Nicosia",
    "certification": null,
    "wta_member": "Yes"
  },
  {
    "name": "Cyta Pera Teleport",
    "latitude": 35.04814,
    "longitude": 33.28355,
    "region": "Europe",
    "country": "Cyprus",
    "metro_area": "Nicosia",
    "certification": null,
    "wta_member": "Yes"
  },
  {
    "name": "Encompass (Babcock (WRN Broadcast))",
    "latitude": 51.481528,
    "longitude": -0.126266,
    "region": "Europe",
    "country": "United Kingdom",
    "metro_area": "London",
    "certification": null,
    "wta_member": "Yes"
  },
  {
    "name": "Encompass Digital Media London Teleport",
    "latitude": 51.517611,
    "longitude": -0.132272999999941,
    "region": "Europe",
    "country": "United Kingdom",
    "metro_area": "London",
    "certification": null,
    "wta_member": "Yes"
  },
  {
    "name": "Encompass Riga",
    "latitude": 56.9505527,
    "longitude": 24.2172047,
    "region": "Europe",
    "country": "Latvia",
    "metro_area": "Riga",
    "certification": null,
    "wta_member": "Yes"
  },
  {
    "name": "Eutelsat Madeira Teleport",
    "latitude": 32.742499,
    "longitude": -16.7336851,
    "region": "Europe",
    "country": "Portugal",
    "metro_area": "Madeira",
    "certification": null,
    "wta_member": "Yes"
  },
  {
    "name": "Globecast London Teleport - London, UK",
    "latitude": 51.523451,
    "longitude": -0.114197,
    "region": "Europe",
    "country": "United Kingdom",
    "metro_area": "London",
    "certification": null,
    "wta_member": "Yes"
  },
  {
    "name": "Globecast Paris Teleport",
    "latitude": 48.862509,
    "longitude": 2.359008,
    "region": "Europe",
    "country": "France",
    "metro_area": "Paris",
    "certification": null,
    "wta_member": "Yes"
  },
  {
    "name": "Globecast Rome Teleport",
    "latitude": 41.93677,
    "longitude": 12.6348273,
    "region": "Europe",
    "country": "Italy",
    "metro_area": "Rome",
    "certification": null,
    "wta_member": "Yes"
  },
  {
    "name": "Globecast Brookman's Park - Hatfield/Hertfordshire UK",
    "latitude": 51.729856,
    "longitude": -0.175957,
    "region": "Europe",
    "country": "United Kingdom",
    "metro_area": "London",
    "certification": null,
    "wta_member": "Yes"
  },
  {
    "name": "Goonhilly Teleport",
    "latitude": 50.048018,
    "longitude": -5.181388,
    "region": "Europe",
    "country": "United Kingdom",
    "metro_area": "Helston",
    "certification": null,
    "wta_member": "Yes"
  },
  {
    "name": "Hughes Network Systems, Griesheim (Frankfurt) Germany",
    "latitude": 49.871053,
    "longitude": 8.560554,
    "region": "Europe",
    "country": "Germany",
    "metro_area": "Frankfurt",
    "certification": null,
    "wta_member": "Yes"
  },
  {
    "name": "Iris Gateway Satellite Services",
    "latitude": 34.8611266,
    "longitude": 33.3827734,
    "region": "Europe",
    "country": "Cyprus",
    "metro_area": "Nicosia",
    "certification": null,
    "wta_member": "Yes"
  },
  {
    "name": "Media Broadcast Satellite - Usingen Teleport - Germany",
    "latitude": 50.331487,
    "longitude": 8.478775,
    "region": "Europe",
    "country": "Germany",
    "metro_area": "Frankfurt",
    "certification": null,
    "wta_member": "Yes"
  },
  {
    "name": "M-Three Milano Teleport",
    "latitude": 45.392964,
    "longitude": 9.254014,
    "region": "Europe",
    "country": "Italy",
    "metro_area": "Milan",
    "certification": null,
    "wta_member": "Yes"
  },
  {
    "name": "M-Three Teleport Roma",
    "latitude": 41.8916857,
    "longitude": 12.3823535,
    "region": "Europe",
    "country": "Italy",
    "metro_area": "Rome",
    "certification": null,
    "wta_member": "Yes"
  },
  {
    "name": "North Telecom Teleport",
    "latitude": 49.51503,
    "longitude": 6.37013000000002,
    "region": "Europe",
    "country": "Germany",
    "metro_area": "Luxembourg",
    "certification": null,
    "wta_member": "Yes"
  },
  {
    "name": "OmniAccess Teleport",
    "latitude": 39.6352081,
    "longitude": 2.6304638,
    "region": "Europe",
    "country": "Mallorca",
    "metro_area": "Palma",
    "certification": null,
    "wta_member": "Yes"
  },
  {
    "name": "OmniAccess Teleport",
    "latitude": 39.6352081,
    "longitude": 2.6304638,
    "region": "Europe",
    "country": "Spain",
    "metro_area": "Palma",
    "certification": null,
    "wta_member": "Yes"
  },
  {
    "name": "Satnetics Krasnodar",
    "latitude": 45.03926,
    "longitude": 38.98722,
    "region": "Europe",
    "country": "Krasnodor",
    "metro_area": "Russia",
    "certification": null,
    "wta_member": "Yes"
  },
  {
    "name": "Satnetics Krasnodar",
    "latitude": 45.03926,
    "longitude": 38.98722,
    "region": "Europe",
    "country": "Russia",
    "metro_area": "Krasnodor",
    "certification": null,
    "wta_member": "Yes"
  },
  {
    "name": "SES (MX1 (SES Platform Services)) Munich",
    "latitude": 48.19036,
    "longitude": 11.65571,
    "region": "Europe",
    "country": "Germany",
    "metro_area": "Munich",
    "certification": null,
    "wta_member": "Yes"
  },
  {
    "name": "SES Isle of Man Teleport",
    "latitude": 54.1412406,
    "longitude": -4.4983649,
    "region": "Europe",
    "country": "Isle of Man",
    "metro_area": "Douglas",
    "certification": null,
    "wta_member": "Yes"
  },
  {
    "name": "SES Isle of Man Teleport",
    "latitude": 54.1412406,
    "longitude": -4.4983649,
    "region": "Europe",
    "country": "United Kingdom",
    "metro_area": "Douglas",
    "certification": null,
    "wta_member": "Yes"
  },
  {
    "name": "SES Kiev Teleport",
    "latitude": 50.46615,
    "longitude": 30.504861111111,
    "region": "Europe",
    "country": "Ukraine",
    "metro_area": "Kiev",
    "certification": null,
    "wta_member": "Yes"
  },
  {
    "name": "SES London",
    "latitude": 51.4992638888889,
    "longitude": 0.0587472222222232,
    "region": "Europe",
    "country": "United Kingdom",
    "metro_area": "London",
    "certification": null,
    "wta_member": "Yes"
  },
  {
    "name": "SES Luxembourg Teleport",
    "latitude": 49.692623,
    "longitude": 6.32998,
    "region": "Europe",
    "country": "Luxembourg",
    "metro_area": "Luxembourg",
    "certification": null,
    "wta_member": "Yes"
  },
  {
    "name": "SES Munich Teleport",
    "latitude": 48.1878916666667,
    "longitude": 11.654775,
    "region": "Europe",
    "country": "Germany",
    "metro_area": "Munich",
    "certification": null,
    "wta_member": "Yes"
  },
  {
    "name": "SES Stockholm",
    "latitude": 59.2125916666667,
    "longitude": 18.0836916666667,
    "region": "Europe",
    "country": "Sweden",
    "metro_area": "Stockholm",
    "certification": null,
    "wta_member": "Yes"
  },
  {
    "name": "SONEMA (Expertmedia) Frejus Teleport",
    "latitude": 43.4649957,
    "longitude": 6.7323714,
    "region": "Europe",
    "country": "France",
    "metro_area": "Frejus",
    "certification": null,
    "wta_member": "Yes"
  },
  {
    "name": "SONEMA (Expertmedia) Lognes Teleport",
    "latitude": 48.8378154,
    "longitude": 2.64357870000003,
    "region": "Europe",
    "country": "France",
    "metro_area": "Paris",
    "certification": null,
    "wta_member": "Yes"
  },
  {
    "name": "Speedcast (UltiSat) Teleport Blaavand",
    "latitude": 55.556836,
    "longitude": 8.113935,
    "region": "Europe",
    "country": "Denmark",
    "metro_area": "Blaavand",
    "certification": null,
    "wta_member": "Yes"
  },
  {
    "name": "SSC Esrange Space Center",
    "latitude": 67.8934922,
    "longitude": 21.0644618,
    "region": "Europe",
    "country": "Sweden",
    "metro_area": "Esrange",
    "certification": null,
    "wta_member": "Yes"
  },
  {
    "name": "Stockholm Teleport (SSC)",
    "latitude": 59.212085,
    "longitude": 18.083879,
    "region": "Europe",
    "country": "Sweden",
    "metro_area": "Stockholm",
    "certification": null,
    "wta_member": "Yes"
  },
  {
    "name": "Telenor London Teleport - London, UK",
    "latitude": 51.523481,
    "longitude": -0.124639,
    "region": "Europe",
    "country": "United Kingdom",
    "metro_area": "London",
    "certification": null,
    "wta_member": "Yes"
  },
  {
    "name": "Telenor Satellite Eik Norway",
    "latitude": 58.538311,
    "longitude": 6.467227,
    "region": "Europe",
    "country": "Norway",
    "metro_area": "Eik",
    "certification": null,
    "wta_member": "Yes"
  },
  {
    "name": "Telespazio - Matera Space Centre",
    "latitude": 40.649335,
    "longitude": 16.703596,
    "region": "Europe",
    "country": "Italy",
    "metro_area": "Matera",
    "certification": null,
    "wta_member": "Yes"
  },
  {
    "name": "Telespazio - Scanzano Space Centre",
    "latitude": 37.913421,
    "longitude": 13.361766,
    "region": "Europe",
    "country": "Italy",
    "metro_area": "Palermo",
    "certification": null,
    "wta_member": "Yes"
  },
  {
    "name": "TTcomm Minsk Teleport",
    "latitude": 52.170346,
    "longitude": 21.5371756,
    "region": "Europe",
    "country": "Poland",
    "metro_area": "Minsk",
    "certification": null,
    "wta_member": "Yes"
  },
  {
    "name": "AXESS Networks Iztapalapa",
    "latitude": 19.369659,
    "longitude": -99.0652522,
    "region": "Latin America",
    "country": "Mexico",
    "metro_area": "Mexico City",
    "certification": null,
    "wta_member": "Yes"
  },
  {
    "name": "Encompass Buenos Aires Teleport - Buenos Aires, Argentina",
    "latitude": -34.497882,
    "longitude": -58.52933,
    "region": "Latin America",
    "country": "Argentina",
    "metro_area": "Buenos Aires",
    "certification": null,
    "wta_member": "Yes"
  },
  {
    "name": "Eutelsat (SATMEX) Iztapalapa Teleport",
    "latitude": 19.369419,
    "longitude": -99.064247,
    "region": "Latin America",
    "country": "Mexico",
    "metro_area": "Mexico City",
    "certification": null,
    "wta_member": "Yes"
  },
  {
    "name": "Eutelsat Americas (SATMEX) Hermosillo, Sonora, Mexico",
    "latitude": 29.0957421,
    "longitude": -111.0048714,
    "region": "Latin America",
    "country": "Mexico",
    "metro_area": "Hermosillo",
    "certification": null,
    "wta_member": "Yes"
  },
  {
    "name": "SSC Punta Arenas Teleport - Punta Arenas, Chile",
    "latitude": -53.1553179,
    "longitude": -71.0501234,
    "region": "Latin America",
    "country": "Chile",
    "metro_area": "Punta Arenas",
    "certification": null,
    "wta_member": "Yes"
  },
  {
    "name": "SSC Santiago Satellite Station - Santiago, Chile",
    "latitude": -33.149915,
    "longitude": -70.667371,
    "region": "Latin America",
    "country": "Chile",
    "metro_area": "Santiago",
    "certification": null,
    "wta_member": "Yes"
  },
  {
    "name": "Telespazio Buenos Aires Teleport - Buenos Aires, Argentina",
    "latitude": -34.582748,
    "longitude": -58.432828,
    "region": "Latin America",
    "country": "Argentina",
    "metro_area": "Buenos Aires",
    "certification": null,
    "wta_member": "Yes"
  },
  {
    "name": "Telespazio Itaboraí",
    "latitude": -22.6965,
    "longitude": -42.8724722,
    "region": "Latin America",
    "country": "Brazil",
    "metro_area": "Rio de Janeiro",
    "certification": null,
    "wta_member": "Yes"
  },
  {
    "name": "Azyan Telecom - Oman",
    "latitude": 23.564046,
    "longitude": 58.168112,
    "region": "Middle East/Africa",
    "country": "Oman",
    "metro_area": "Muscat",
    "certification": null,
    "wta_member": "Yes"
  },
  {
    "name": "Dalkom Somalia",
    "latitude": 2.007,
    "longitude": 45.292,
    "region": "Middle East/Africa",
    "country": "Somalia",
    "metro_area": "Mogadishu",
    "certification": null,
    "wta_member": "Yes"
  },
  {
    "name": "Etisalat Ras Al Khaimah Station",
    "latitude": 25.7927,
    "longitude": 56.0408,
    "region": "Middle East/Africa",
    "country": "United Arab Emirates",
    "metro_area": "Ras Al Khaimah",
    "certification": null,
    "wta_member": "Yes"
  },
  {
    "name": "Globecast Johannesburg Teleport",
    "latitude": -26.12704449847879,
    "longitude": 28.031744102358928,
    "region": "Middle East/Africa",
    "country": "South Africa",
    "metro_area": "Johannesburg",
    "certification": null,
    "wta_member": "Yes"
  },
  {
    "name": "GulfSat Communications Um Al Haiman ",
    "latitude": 28.96116,
    "longitude": 48.15559,
    "region": "Middle East/Africa",
    "country": "Kuwait",
    "metro_area": "Kuwait City",
    "certification": null,
    "wta_member": "No"
  },
  {
    "name": "Intelsat Pretoria",
    "latitude": -25.908123,
    "longitude": 27.699544,
    "region": "Middle East/Africa",
    "country": "South Africa",
    "metro_area": "Johannesburg",
    "certification": null,
    "wta_member": "Yes"
  },
  {
    "name": "iSAT Africa Nairobi Teleport",
    "latitude": -1.325408,
    "longitude": 36.850757,
    "region": "Middle East/Africa",
    "country": "Kenya",
    "metro_area": "Nairobi",
    "certification": null,
    "wta_member": "Yes"
  },
  {
    "name": "Jordan Media City Teleport",
    "latitude": 31.903533,
    "longitude": 35.935193,
    "region": "Middle East/Africa",
    "country": "Jordan",
    "metro_area": "Amman",
    "certification": null,
    "wta_member": "Yes"
  },
  {
    "name": "SES (MX1 (RR Media (Satlink))) Neve Islan Teleport",
    "latitude": 31.8061,
    "longitude": 35.09172,
    "region": "Middle East/Africa",
    "country": "Israel",
    "metro_area": "Jerusalem ",
    "certification": null,
    "wta_member": "Yes"
  },
  {
    "name": "SES (MX1 (RR Media)) (Inmarsat Earth Station, Emeq Haela) Israel",
    "latitude": 31.6833333333333,
    "longitude": 34.9941666666666,
    "region": "Middle East/Africa",
    "country": "Israel",
    "metro_area": "Jerusalem ",
    "certification": null,
    "wta_member": "Yes"
  },
  {
    "name": "ATCi Teleport",
    "latitude": 33.31146,
    "longitude": -111.953335,
    "region": "North America",
    "country": "United States",
    "metro_area": "Phoenix",
    "certification": null,
    "wta_member": "Yes"
  },
  {
    "name": "Campo Rico Canovanas Teleport",
    "latitude": 18.32271,
    "longitude": -65.88918,
    "region": "North America",
    "country": "United States",
    "metro_area": "San Jaun",
    "certification": null,
    "wta_member": "Yes"
  },
  {
    "name": "CSC Apline Teleport",
    "latitude": 40.961114,
    "longitude": -73.923076,
    "region": "North America",
    "country": "United States",
    "metro_area": "New York",
    "certification": null,
    "wta_member": "Yes"
  },
  {
    "name": "CSC Miami International Teleport",
    "latitude": 25.837368,
    "longitude": -80.249118,
    "region": "North America",
    "country": "United States",
    "metro_area": "Miami",
    "certification": null,
    "wta_member": "Yes"
  },
  {
    "name": "EchoStar Monee Teleport",
    "latitude": 41.467304,
    "longitude": -87.776589,
    "region": "North America",
    "country": "United States",
    "metro_area": "Chicago",
    "certification": null,
    "wta_member": "Yes"
  },
  {
    "name": "EchoStar New Braunfels TX",
    "latitude": 29.758457,
    "longitude": -98.064574,
    "region": "North America",
    "country": "United States",
    "metro_area": "San Antonio",
    "certification": null,
    "wta_member": "Yes"
  },
  {
    "name": "EchoStar Spokane, WA",
    "latitude": 47.593501,
    "longitude": -117.550986,
    "region": "North America",
    "country": "United States",
    "metro_area": "Seattle",
    "certification": null,
    "wta_member": "Yes"
  },
  {
    "name": "Encompass Atlanta Teleport",
    "latitude": 33.89665,
    "longitude": -84.239441,
    "region": "North America",
    "country": "United States",
    "metro_area": "Atlanta",
    "certification": null,
    "wta_member": "Yes"
  },
  {
    "name": "Encompass Digital Media Stamford",
    "latitude": 41.0757259,
    "longitude": -73.520015,
    "region": "North America",
    "country": "United States",
    "metro_area": "New York",
    "certification": null,
    "wta_member": "Yes"
  },
  {
    "name": "Encompass Northvale Teleport",
    "latitude": 41.015163,
    "longitude": -73.942977,
    "region": "North America",
    "country": "United States",
    "metro_area": "New York",
    "certification": null,
    "wta_member": "Yes"
  },
  {
    "name": "GlobeCast Miami",
    "latitude": 26.1404787,
    "longitude": -80.3348729,
    "region": "North America",
    "country": "United States",
    "metro_area": "Miami",
    "certification": null,
    "wta_member": "Yes"
  },
  {
    "name": "Hughes Network Systems",
    "latitude": 36.2362387,
    "longitude": -115.1174428,
    "region": "North America",
    "country": "United States",
    "metro_area": "Los Angeles",
    "certification": null,
    "wta_member": "Yes"
  },
  {
    "name": "HyperLink",
    "latitude": 53.471825,
    "longitude": -113.4752298,
    "region": "North America",
    "country": "Canada",
    "metro_area": "Edmonton",
    "certification": null,
    "wta_member": "Yes"
  },
  {
    "name": "Intelsat Castle Rock Teleport",
    "latitude": 39.277107,
    "longitude": -104.806944,
    "region": "North America",
    "country": "United States",
    "metro_area": "Denver",
    "certification": null,
    "wta_member": "Yes"
  },
  {
    "name": "Intelsat Fillmore Teleport",
    "latitude": 34.405783,
    "longitude": -118.894011,
    "region": "North America",
    "country": "United States",
    "metro_area": "Los Angeles",
    "certification": null,
    "wta_member": "Yes"
  },
  {
    "name": "Intelsat Paumalu Teleport",
    "latitude": 21.672145,
    "longitude": -158.034554,
    "region": "North America",
    "country": "United States",
    "metro_area": "Honolulu",
    "certification": null,
    "wta_member": "Yes"
  },
  {
    "name": "Isotropic Networks Inc. Teleport - Lake Geneva, WI, USA",
    "latitude": 42.617925,
    "longitude": -88.439068,
    "region": "North America",
    "country": "United States",
    "metro_area": "Milwaukee",
    "certification": null,
    "wta_member": "Yes"
  },
  {
    "name": "ITC Global New Orleans Teleport",
    "latitude": 29.97057,
    "longitude": -90.203312,
    "region": "North America",
    "country": "United States",
    "metro_area": "New Orleans",
    "certification": null,
    "wta_member": "Yes"
  },
  {
    "name": "Microcom Fairbanks Teleport",
    "latitude": 64.8549387,
    "longitude": -147.6860494,
    "region": "North America",
    "country": "United States",
    "metro_area": "Fairbanks",
    "certification": null,
    "wta_member": "Yes"
  },
  {
    "name": "Microcom Talkeetna Teleport",
    "latitude": 62.331597,
    "longitude": -150.034773,
    "region": "North America",
    "country": "United States",
    "metro_area": "Anchorage",
    "certification": null,
    "wta_member": "Yes"
  },
  {
    "name": "PSSI - Pittsburgh Teleport",
    "latitude": 40.533966,
    "longitude": -79.753442,
    "region": "North America",
    "country": "United States",
    "metro_area": "Pittsburgh",
    "certification": null,
    "wta_member": "Yes"
  },
  {
    "name": "PSSI Global Teleport",
    "latitude": 36.06925,
    "longitude": -115.199743,
    "region": "North America",
    "country": "United States",
    "metro_area": "Las Vegas",
    "certification": null,
    "wta_member": "Yes"
  },
  {
    "name": "Roberts Communications Network",
    "latitude": 43.775835,
    "longitude": -71.681964,
    "region": "North America",
    "country": "United States",
    "metro_area": "Boston",
    "certification": null,
    "wta_member": "Yes"
  },
  {
    "name": "Roberts Communications Network (RNC) Las Vegas Teleport - Las Vegas, NV, USA",
    "latitude": 35.962207,
    "longitude": -115.1666493,
    "region": "North America",
    "country": "United States",
    "metro_area": "Las Vegas",
    "certification": null,
    "wta_member": "Yes"
  },
  {
    "name": "SES (MX1) Hawley Teleport (RR Media)",
    "latitude": 41.464775,
    "longitude": -75.128996,
    "region": "North America",
    "country": "United States",
    "metro_area": "New York",
    "certification": null,
    "wta_member": "Yes"
  },
  {
    "name": "SES Manassas",
    "latitude": 38.7837778,
    "longitude": -77.5734167,
    "region": "North America",
    "country": "United States",
    "metro_area": "Washington DC",
    "certification": null,
    "wta_member": "Yes"
  },
  {
    "name": "SES South Mountain",
    "latitude": 34.3253333,
    "longitude": -118.9954444,
    "region": "North America",
    "country": "United States",
    "metro_area": "Los Angeles",
    "certification": null,
    "wta_member": "Yes"
  },
  {
    "name": "SES Woodbine Teleport",
    "latitude": 39.376341,
    "longitude": -77.080336,
    "region": "North America",
    "country": "United States",
    "metro_area": "Washington DC",
    "certification": null,
    "wta_member": "Yes"
  },
  {
    "name": "Speedcast (Globecomm) Laurel MD Teleport",
    "latitude": 39.112282,
    "longitude": -76.832715,
    "region": "North America",
    "country": "United States",
    "metro_area": "Washington DC",
    "certification": null,
    "wta_member": "Yes"
  },
  {
    "name": "Speedcast (Globecomm) LI Teleport",
    "latitude": 40.8151896,
    "longitude": -73.23879,
    "region": "North America",
    "country": "United States",
    "metro_area": "New York",
    "certification": null,
    "wta_member": "Yes"
  },
  {
    "name": "SSC Clewiston Florida Satellite Station",
    "latitude": 26.7477182,
    "longitude": -81.0492164,
    "region": "North America",
    "country": "United States",
    "metro_area": "Miami",
    "certification": null,
    "wta_member": "Yes"
  },
  {
    "name": "SSC Inuvik Satellite Station",
    "latitude": 68.3180555555555,
    "longitude": -133.538888888889,
    "region": "North America",
    "country": "Canada",
    "metro_area": "Inuvik",
    "certification": null,
    "wta_member": "Yes"
  },
  {
    "name": "SSC North Pole Satellite Station",
    "latitude": 64.8044444444444,
    "longitude": -147.500277777778,
    "region": "North America",
    "country": "Canada",
    "metro_area": "Fairbanks",
    "certification": null,
    "wta_member": "Yes"
  },
  {
    "name": "SSC Poker Flat Ground Station",
    "latitude": 65.1166025,
    "longitude": -147.4596012,
    "region": "North America",
    "country": "Canada",
    "metro_area": "Fairbanks",
    "certification": null,
    "wta_member": "Yes"
  },
  {
    "name": "SSC South Point Hawaii Satellite Station",
    "latitude": 19.0140651,
    "longitude": -155.6630811,
    "region": "North America",
    "country": "United States",
    "metro_area": "Hilo",
    "certification": null,
    "wta_member": "Yes"
  },
  {
    "name": "Telesat Allan Park Teleport",
    "latitude": 44.17419,
    "longitude": -80.9356749,
    "region": "North America",
    "country": "Canada",
    "metro_area": "Toronto",
    "certification": null,
    "wta_member": "Yes"
  },
  {
    "name": "United Teleports Miami",
    "latitude": 25.949756,
    "longitude": -80.191772,
    "region": "North America",
    "country": "United States",
    "metro_area": "Miami",
    "certification": null,
    "wta_member": "Yes"
  },
  {
    "name": "United Teleports Port St. Lucie",
    "latitude": 27.28229,
    "longitude": -80.48296,
    "region": "North America",
    "country": "United States",
    "metro_area": "Port St. Lucie",
    "certification": null,
    "wta_member": "Yes"
  },
  {
    "name": "United Teleports Thomaston",
    "latitude": 32.9490673,
    "longitude": -84.2617078,
    "region": "North America",
    "country": "United States",
    "metro_area": "Atlanta",
    "certification": null,
    "wta_member": "Yes"
  },
  {
    "name": "X2nSat (Futaris) Anchorage Teleport - Anchorage, Alaska, USA",
    "latitude": 61.1412417,
    "longitude": -149.8750917,
    "region": "North America",
    "country": "United States",
    "metro_area": "Anchorage",
    "certification": null,
    "wta_member": "Yes"
  },
  {
    "name": "X2nSat Petaluma Teleport - Petaluma, CA, USA",
    "latitude": 38.274576,
    "longitude": -122.663762,
    "region": "North America",
    "country": "United States",
    "metro_area": "San Francisco",
    "certification": null,
    "wta_member": "Yes"
  },
  {
    "name": "X2nSat Satellite Gateway and Network Operations Center",
    "latitude": 32.2685173,
    "longitude": -106.9145863,
    "region": "North America",
    "country": "United States",
    "metro_area": "Las Cruces",
    "certification": null,
    "wta_member": "Yes"
  },
  {
    "name": "Encompass Digital Media Woofferton Teleport",
    "latitude": 52.3097807,
    "longitude": -2.7203587,
    "region": "Europe",
    "country": "United Kingdom\n",
    "metro_area": "Woofferton",
    "certification": null,
    "wta_member": "Yes"
  },
  {
    "name": "Speedcast Hong Kong\n",
    "latitude": 22.453,
    "longitude": 114.189799,
    "region": "Asia-Pacific",
    "country": "China",
    "metro_area": "Hong Kong\n",
    "certification": null,
    "wta_member": "Yes"
  },
  {
    "name": "Speedcast Jakarta (DCI)\n",
    "latitude": -6.304597,
    "longitude": 107.097836,
    "region": "Asia-Pacific",
    "country": "Indonesia",
    "metro_area": "Jakarta",
    "certification": null,
    "wta_member": "Yes"
  },
  {
    "name": "Speedcast Lae\n",
    "latitude": -6.7275,
    "longitude": 146.999444,
    "region": "Asia-Pacific",
    "country": "Papua New Guinea",
    "metro_area": "Lae",
    "certification": null,
    "wta_member": "Yes"
  },
  {
    "name": "Quintillion Utqiagvik",
    "latitude": 71.2937275,
    "longitude": -156.7264717,
    "region": "North America\n",
    "country": "United States\n",
    "metro_area": "Utqiagvik",
    "certification": null,
    "wta_member": "Yes"
  },
  {
    "name": "Hughes Network Systems",
    "latitude": 36.2362387,
    "longitude": -115.1174428,
    "region": "North America\n",
    "country": "United States\n",
    "metro_area": "Las Vegas\n",
    "certification": null,
    "wta_member": "Yes"
  },
  {
    "name": "Hughes Detroit\n",
    "latitude": 42.4663125,
    "longitude": -83.2311875,
    "region": "North America\n",
    "country": "United States\n",
    "metro_area": "Detroit",
    "certification": null,
    "wta_member": "Yes"
  },
  {
    "name": "Hughes Germantown\n",
    "latitude": 39.1793165,
    "longitude": -77.246935,
    "region": "North America\n",
    "country": "United States\n",
    "metro_area": "Washington DC\n",
    "certification": null,
    "wta_member": "Yes\n"
  },
  {
    "name": "Hispasat Arganda del Rey",
    "latitude": 40.27256,
    "longitude": -3.377762,
    "region": "Europe",
    "country": "Spain",
    "metro_area": "Madrid",
    "certification": null,
    "wta_member": "Yes"
  },
  {
    "name": "Hispasat Tres Cantos",
    "latitude": 40.617263,
    "longitude": -3.713055,
    "region": "Europe",
    "country": "Spain",
    "metro_area": "Madrid",
    "certification": null,
    "wta_member": "Yes\n"
  },
  {
    "name": "Hispasat Flamengo",
    "latitude": -22.9323916,
    "longitude": -43.1745905,
    "region": "Latin America\n",
    "country": "Brazil",
    "metro_area": "Rio de Janeiro",
    "certification": null,
    "wta_member": "Yes"
  },
  {
    "name": "Telenor Nittedal Teleport",
    "latitude": 60.143674,
    "longitude": 10.806245,
    "region": "Europe",
    "country": "Norway",
    "metro_area": "Oslo",
    "certification": "No",
    "wta_member": "Yes"
  },
  {
    "name": "Altice Portugal Sintra\n",
    "latitude": 38.8692,
    "longitude": -9.2817,
    "region": "Europe",
    "country": "Portigal",
    "metro_area": "Lisbon",
    "certification": null,
    "wta_member": "Yes"
  },
  {
    "name": "Telespazio Maricá ",
    "latitude": -22.911948,
    "longitude": -42.852646,
    "region": "Latin America\n",
    "country": "Brazil",
    "metro_area": "Rio de Janeiro\n",
    "certification": null,
    "wta_member": "Yes"
  },
  {
    "name": "OneWeb Maricá \n",
    "latitude": -22.9124322,
    "longitude": -42.8527855,
    "region": "Latin America\n",
    "country": "Brazil",
    "metro_area": "Rio de Janeiro\n",
    "certification": null,
    "wta_member": "Yes"
  },
  {
    "name": "Green Colo Ltd - Walled Garden - Fareham\n",
    "latitude": 50.8469558,
    "longitude": -1.1669818,
    "region": "Europe",
    "country": "United Kingdom\n",
    "metro_area": "Portsmouth",
    "certification": null,
    "wta_member": "Yes"
  },
  {
    "name": "Altice São Miguel Azores\n",
    "latitude": 37.7901896,
    "longitude": -25.6649451,
    "region": "Europe",
    "country": "Portugal",
    "metro_area": "Ponta Delgada",
    "certification": null,
    "wta_member": "Yes"
  },
  {
    "name": "ABS Cikarang Teleport",
    "latitude": -6.3766993,
    "longitude": 107.1580638,
    "region": "Asia-Pacific",
    "country": "Indonesia",
    "metro_area": null,
    "certification": null,
    "wta_member": "Yes"
  },
  {
    "name": "ABS Port Moresby Teleport",
    "latitude": -9.4042153,
    "longitude": 147.2596443,
    "region": "Asia-Pacific\n",
    "country": "Papua New Guinea",
    "metro_area": "Port Moresby",
    "certification": null,
    "wta_member": "Yes"
  },
  {
    "name": "KT sat Yongin Teleport",
    "latitude": 37.208075,
    "longitude": 127.245892,
    "region": "Asia-Pacific",
    "country": "South Korea\n",
    "metro_area": "Seoul",
    "certification": null,
    "wta_member": "Yes"
  },
  {
    "name": "LBisat Eagle Mountain Teleport",
    "latitude": 40.2859767,
    "longitude": -112.0235767,
    "region": "North America\n",
    "country": "United States\n",
    "metro_area": "Salt Lake City\n",
    "certification": null,
    "wta_member": "Yes"
  },
  {
    "name": "Teleport Georgia Ltd",
    "latitude": 41.6955548,
    "longitude": 44.904557,
    "region": "Asia-Pacific",
    "country": "Georgia",
    "metro_area": "Tbilisi",
    "certification": null,
    "wta_member": "Yes"
  },
  {
    "name": "Arqiva Morn Hill\n",
    "latitude": 51.0602498,
    "longitude": -1.2643231,
    "region": "Europe",
    "country": "United Kingdom\n",
    "metro_area": "London",
    "certification": null,
    "wta_member": "Yes"
  },
  {
    "name": "Arqiva Martlesham\n",
    "latitude": 52.0598328,
    "longitude": 1.2873172,
    "region": "Europe",
    "country": "United Kingdom\n",
    "metro_area": "London",
    "certification": null,
    "wta_member": "Yes"
  },
  {
    "name": "DDISH TV",
    "latitude": 47.91143,
    "longitude": 106.75652,
    "region": "Asia-Pacific",
    "country": "Mongolia",
    "metro_area": "Ulaanbaatar",
    "certification": null,
    "wta_member": "Yes"
  },
  {
    "name": "SageNet Chicago Teleport",
    "latitude": 41.837403,
    "longitude": -87.683881,
    "region": "North America\n",
    "country": "United States\n",
    "metro_area": "Chicago",
    "certification": null,
    "wta_member": "Yes"
  },
  {
    "name": "Globecast Near & Middle East - Beirut",
    "latitude": 33.8765127,
    "longitude": 35.5174239,
    "region": "Middle East Africa\n",
    "country": "Lebanon",
    "metro_area": "Beirut",
    "certification": null,
    "wta_member": "Yes"
  },
  {
    "name": "Optus Lockridge Teleport - Perth, Australia",
    "latitude": -31.880318,
    "longitude": 115.941223,
    "region": "Asia-Pacific",
    "country": "Australia",
    "metro_area": "Perth",
    "certification": "No",
    "wta_member": "Yes"
  },
  {
    "name": "Optus Hume (Canberra) Australia",
    "latitude": -35.3955364,
    "longitude": 149.1661827,
    "region": "Asia-Pacific",
    "country": "Australia",
    "metro_area": "Canberra",
    "certification": "No\n",
    "wta_member": "Yes"
  },
  {
    "name": "Globecast Americas - Westlake Village Studios",
    "latitude": 34.1505194,
    "longitude": -118.8049025,
    "region": "North America\n",
    "country": "United States\n",
    "metro_area": "Los Angeles\n",
    "certification": null,
    "wta_member": "Yes"
  },
  {
    "name": "ATLAS Space Operations - Mwuire Rwanda ",
    "latitude": -1.9685265,
    "longitude": 30.3976597,
    "region": "Middle East/Africa\n",
    "country": "Rwanda ",
    "metro_area": "Kigali",
    "certification": null,
    "wta_member": "Yes"
  },
  {
    "name": "ATLAS Space Operations - Sunyani",
    "latitude": 7.3491725,
    "longitude": -2.3409093,
    "region": "Middle East/Africa\n",
    "country": "Ghana",
    "metro_area": "Sunyani",
    "certification": null,
    "wta_member": "Yes"
  },
  {
    "name": "ATLAS Space Operations - Harmon Guam\n",
    "latitude": 13.5134712,
    "longitude": 144.8253406,
    "region": "Asia-Pacific",
    "country": "Guam",
    "metro_area": "Tamuning",
    "certification": null,
    "wta_member": "Yes"
  },
  {
    "name": "ATLAS Space Operations - Chitose Hokkaido",
    "latitude": 42.7745083,
    "longitude": 141.6235623,
    "region": "Asia-Pacific",
    "country": "Japan",
    "metro_area": "Hokkaido",
    "certification": null,
    "wta_member": "Yes"
  },
  {
    "name": "ATLAS Space Operations - Utqiagvik (Barrow), AK",
    "latitude": 71.27,
    "longitude": -156.8,
    "region": "North America\n",
    "country": "United States\n",
    "metro_area": "Utqiagvik",
    "certification": null,
    "wta_member": "Yes"
  },
  {
    "name": "ATLAS Space Operations - Albuquerque, NM\n",
    "latitude": 35.0575833,
    "longitude": -106.5285278,
    "region": "North America\n",
    "country": "United States\n",
    "metro_area": "Albuquerque",
    "certification": null,
    "wta_member": "Yes\n"
  },
  {
    "name": "ATLAS Space Operations - Tahiti, French Polynesia\n",
    "latitude": -17.64,
    "longitude": -149.61,
    "region": "Asia-Pacific",
    "country": "French Polynesia\n",
    "metro_area": "Papeete",
    "certification": null,
    "wta_member": "Yes"
  },
  {
    "name": "ATLAS Space Operations - Paumalu, HI\n",
    "latitude": 21.67,
    "longitude": -158.03,
    "region": "Asia-Pacific",
    "country": "United States\n",
    "metro_area": "Honolulu",
    "certification": null,
    "wta_member": "Yes"
  },
  {
    "name": "ATLAS Space Operations - Mojave, CA\n",
    "latitude": 35.0536819,
    "longitude": -118.1558159,
    "region": "North America\n",
    "country": "United States\n",
    "metro_area": "Los Angeles\n",
    "certification": null,
    "wta_member": null
  },
  {
    "name": "ATLAS Space Operations - Sodankylä, Finland\n",
    "latitude": 67.3683877,
    "longitude": 26.6311649,
    "region": "Europe",
    "country": "Finland\n",
    "metro_area": "Sodankylä\n",
    "certification": null,
    "wta_member": "Yes"
  },
  {
    "name": "ATLAS Space Operations - Dundee, Scotland\n",
    "latitude": 56.4059819,
    "longitude": -3.1894733,
    "region": "Europe",
    "country": "United Kingdom\n",
    "metro_area": "Dundee",
    "certification": null,
    "wta_member": "Yes"
  },
  {
    "name": "MSTelcom Luanda Teleport",
    "latitude": -8.7719011,
    "longitude": 13.2953534,
    "region": "Africa",
    "country": "Angola",
    "metro_area": "Luanda",
    "certification": null,
    "wta_member": "No"
  },
  {
    "name": "A-Cosmos Osaka Teleport",
    "latitude": 34.69824,
    "longitude": 135.514733,
    "region": "Asia-Pacific",
    "country": "Japan",
    "metro_area": "Osaka",
    "certification": null,
    "wta_member": "No"
  },
  {
    "name": "Adore Technologies Pte ltd. (Planetcast)",
    "latitude": 1.3520877,
    "longitude": 103.8607747,
    "region": "Asia-Pacific",
    "country": "Singapore",
    "metro_area": "Singapore",
    "certification": null,
    "wta_member": "No"
  },
  {
    "name": "Airtel - UNOC - Gurugram",
    "latitude": 28.3786166,
    "longitude": 76.9020524,
    "region": "Asia-Pacific",
    "country": "India",
    "metro_area": "New Delhi",
    "certification": null,
    "wta_member": "No"
  },
  {
    "name": "Airtel Mumbai",
    "latitude": 19.184747,
    "longitude": 72.830535,
    "region": "Asia-Pacific",
    "country": "India",
    "metro_area": "Mumbai",
    "certification": null,
    "wta_member": "No"
  },
  {
    "name": "Amagi Media Labs Pvt. Ltd",
    "latitude": 12.86444,
    "longitude": 77.59218,
    "region": "Asia-Pacific",
    "country": "India",
    "metro_area": "Bengalaru",
    "certification": null,
    "wta_member": "No"
  },
  {
    "name": "APT Hong Kong Teleport",
    "latitude": 22.453638,
    "longitude": 114.18795,
    "region": "Asia-Pacific",
    "country": "China",
    "metro_area": "Hong Kong",
    "certification": null,
    "wta_member": "No"
  },
  {
    "name": "Arcana Media Group Sdn Bhd - Cyberjaya",
    "latitude": 2.904343,
    "longitude": 101.652069,
    "region": "Asia-Pacific",
    "country": "Malaysia",
    "metro_area": "Kuala Lumpur",
    "certification": null,
    "wta_member": "No"
  },
  {
    "name": "Aruji Global Teleport Yokkaichi",
    "latitude": 34.938633,
    "longitude": 136.5907301,
    "region": "Asia-Pacific",
    "country": "Japan",
    "metro_area": "Nagoya",
    "certification": null,
    "wta_member": "No"
  },
  {
    "name": "Aruji Tokyo Teleport",
    "latitude": 34.6759133,
    "longitude": 135.4904507,
    "region": "Asia-Pacific",
    "country": "Japan",
    "metro_area": "Tokyo",
    "certification": null,
    "wta_member": "No"
  },
  {
    "name": "AsiaSat Hong Kong Teleport",
    "latitude": 22.453334,
    "longitude": 114.189587,
    "region": "Asia-Pacific",
    "country": "China",
    "metro_area": "Hong Kong",
    "certification": null,
    "wta_member": "No"
  },
  {
    "name": "Astro All Asia Networks Plc",
    "latitude": 3.051275,
    "longitude": 101.700965,
    "region": "Asia-Pacific",
    "country": "Malaysia",
    "metro_area": "Kuala Lumpur",
    "certification": null,
    "wta_member": "No"
  },
  {
    "name": "Av-Comm Pty Ltd",
    "latitude": -33.7668756,
    "longitude": 151.2717405,
    "region": "Asia-Pacific",
    "country": "Australia",
    "metro_area": "Sydney",
    "certification": null,
    "wta_member": "No"
  },
  {
    "name": "Betbania (Betbunia) Earth Station",
    "latitude": 22.548352,
    "longitude": 91.995537,
    "region": "Asia-Pacific",
    "country": "Bangladesh",
    "metro_area": "Chittagong",
    "certification": null,
    "wta_member": "No"
  },
  {
    "name": "Bhutan Broadcasting Service",
    "latitude": 27.479568,
    "longitude": 89.633844,
    "region": "Asia-Pacific",
    "country": "Bhutan",
    "metro_area": "Thimphu",
    "certification": null,
    "wta_member": "No"
  },
  {
    "name": "Bluesky Cook Islands",
    "latitude": -21.2081789,
    "longitude": -159.7775522,
    "region": "Asia-Pacific",
    "country": "Cook Islands",
    "metro_area": "Avarua District",
    "certification": null,
    "wta_member": "No"
  },
  {
    "name": "Bluesky Pago Pago",
    "latitude": -14.3388131,
    "longitude": -170.7306065,
    "region": "Asia-Pacific",
    "country": "American Samoa",
    "metro_area": "Pago Pago",
    "certification": null,
    "wta_member": "No"
  },
  {
    "name": "B-SAT - Kawaguchi Satellite Control Center",
    "latitude": 35.8302888,
    "longitude": 139.7185421,
    "region": "Asia-Pacific",
    "country": "Japan",
    "metro_area": "Tokyo",
    "certification": null,
    "wta_member": "No"
  },
  {
    "name": "B-SAT - Kimitsu Satellite Control Center",
    "latitude": 35.19378,
    "longitude": 140.074392,
    "region": "Asia-Pacific",
    "country": "Japan",
    "metro_area": "Tokyo",
    "certification": null,
    "wta_member": "No"
  },
  {
    "name": "BTC Earth Station Dhaka",
    "latitude": 23.785634,
    "longitude": 90.40781,
    "region": "Asia-Pacific",
    "country": "Bangladesh",
    "metro_area": "Dhaka",
    "certification": null,
    "wta_member": "No"
  },
  {
    "name": "CAT Telecom - Nonthaburi Satellite Station",
    "latitude": 13.8670982,
    "longitude": 100.5154871,
    "region": "Asia-Pacific",
    "country": "Thailand",
    "metro_area": "Bangkok",
    "certification": null,
    "wta_member": "No"
  },
  {
    "name": "China Satcom Sanya",
    "latitude": 18.2315626,
    "longitude": 109.5211628,
    "region": "Asia-Pacific",
    "country": "China",
    "metro_area": "Sanya",
    "certification": null,
    "wta_member": "No"
  },
  {
    "name": "China Satellite Communications Haidian",
    "latitude": 40.05101,
    "longitude": 116.276298,
    "region": "Asia-Pacific",
    "country": "China",
    "metro_area": "Beijing",
    "certification": null,
    "wta_member": "No"
  },
  {
    "name": "Dubbo Teleport",
    "latitude": -32.1772289,
    "longitude": 148.6155003,
    "region": "Asia-Pacific",
    "country": "Australia",
    "metro_area": "Dubbo",
    "certification": null,
    "wta_member": "No"
  },
  {
    "name": "Gateway Teleport Ltd.",
    "latitude": -41.139949123555475,
    "longitude": 175.0530677819415,
    "region": "Asia-Pacific",
    "country": "New Zealand",
    "metro_area": "Wellington",
    "certification": null,
    "wta_member": "No"
  },
  {
    "name": "GISTDA Si Racha",
    "latitude": 13.102443,
    "longitude": 100.92788,
    "region": "Asia-Pacific",
    "country": "Thailand",
    "metro_area": "Bangkok",
    "certification": null,
    "wta_member": "No"
  },
  {
    "name": "Global Switch Tai Seng",
    "latitude": 1.336723,
    "longitude": 103.8938277,
    "region": "Asia-Pacific",
    "country": "China",
    "metro_area": "Hong Kong",
    "certification": null,
    "wta_member": "No"
  },
  {
    "name": "Globalstar Singapore Gateway (colo SingTel)",
    "latitude": 1.396861,
    "longitude": 103.834276,
    "region": "Asia-Pacific",
    "country": "Singapore",
    "metro_area": "Singapore",
    "certification": null,
    "wta_member": "No"
  },
  {
    "name": "HiTRON Limited",
    "latitude": -9.4546471,
    "longitude": 147.1941081,
    "region": "Asia-Pacific",
    "country": "Papua New Guinea",
    "metro_area": "Port Moresby",
    "certification": null,
    "wta_member": "No"
  },
  {
    "name": "Hong Kong Cyberport",
    "latitude": 22.2618386,
    "longitude": 114.1293776,
    "region": "Asia-Pacific",
    "country": "China",
    "metro_area": "Hong Kong",
    "certification": null,
    "wta_member": "No"
  },
  {
    "name": "India Cast Media Distribution Private Limited",
    "latitude": 19.1138486,
    "longitude": 72.8470202,
    "region": "Asia-Pacific",
    "country": "India",
    "metro_area": "Mumbai",
    "certification": null,
    "wta_member": "No"
  },
  {
    "name": "IndiaSign Gurugram Teleport",
    "latitude": 28.5008201,
    "longitude": 77.0708122,
    "region": "Asia-Pacific",
    "country": "India",
    "metro_area": "New Delhi",
    "certification": null,
    "wta_member": "No"
  },
  {
    "name": "Indiasign Hyderabad Teleport",
    "latitude": 17.417078,
    "longitude": 78.408828,
    "region": "Asia-Pacific",
    "country": "India",
    "metro_area": "Hyderabad",
    "certification": null,
    "wta_member": "No"
  },
  {
    "name": "Indiasign Kolkata Teleport",
    "latitude": 22.569866,
    "longitude": 88.42956,
    "region": "Asia-Pacific",
    "country": "India",
    "metro_area": "Kolkata",
    "certification": null,
    "wta_member": "No"
  },
  {
    "name": "Indosat Jakarta",
    "latitude": -6.1517922,
    "longitude": 106.7536999,
    "region": "Asia-Pacific",
    "country": "Indonesia",
    "metro_area": "Jakarta",
    "certification": null,
    "wta_member": "No"
  },
  {
    "name": "Indosat Jatiluhur Teleport",
    "latitude": -6.52194444444444,
    "longitude": 107.411388888889,
    "region": "Asia-Pacific",
    "country": "Indonesia",
    "metro_area": "Purwakarta",
    "certification": null,
    "wta_member": "No"
  },
  {
    "name": "Inmarsat Auckland Teleport",
    "latitude": -36.7482,
    "longitude": 174.6959,
    "region": "Asia-Pacific",
    "country": "New Zealand",
    "metro_area": "Auckland",
    "certification": null,
    "wta_member": "No"
  },
  {
    "name": "Inmarsat Beijing Teleport",
    "latitude": 40.1172,
    "longitude": 116.2275,
    "region": "Asia-Pacific",
    "country": "China",
    "metro_area": "Beijing",
    "certification": null,
    "wta_member": "No"
  },
  {
    "name": "Inmarsat Cape D'Aguilar Satellite Earth Station",
    "latitude": 22.2167,
    "longitude": 114.2492,
    "region": "Asia-Pacific",
    "country": "China",
    "metro_area": "Hong Kong",
    "certification": null,
    "wta_member": "No"
  },
  {
    "name": "Inmarsat Gateway (colo SingTel)",
    "latitude": 1.2474076,
    "longitude": 103.835746,
    "region": "Asia-Pacific",
    "country": "Singapore",
    "metro_area": "Singapore",
    "certification": null,
    "wta_member": "No"
  },
  {
    "name": "Inmarsat Hải Phòng",
    "latitude": 20.8003889,
    "longitude": 106.7100037,
    "region": "Asia-Pacific",
    "country": "Vietnam",
    "metro_area": "Hanoi",
    "certification": null,
    "wta_member": "No"
  },
  {
    "name": "Inmarsat Perth",
    "latitude": -31.8051167,
    "longitude": 115.8851294,
    "region": "Asia-Pacific",
    "country": "Australia",
    "metro_area": "Perth",
    "certification": null,
    "wta_member": "No"
  },
  {
    "name": "IPSTAR  (Thaicom) Philippine Gateway",
    "latitude": 15.114189,
    "longitude": 120.601268,
    "region": "Asia-Pacific",
    "country": "Philippines",
    "metro_area": "Angeles City",
    "certification": null,
    "wta_member": "No"
  },
  {
    "name": "ISRO Hassan MCF (Master Control Facility)",
    "latitude": 13.071504,
    "longitude": 76.098501,
    "region": "Asia-Pacific",
    "country": "India",
    "metro_area": "Hassan",
    "certification": null,
    "wta_member": "No"
  },
  {
    "name": "ISRO Lucknow",
    "latitude": 26.9127777777778,
    "longitude": 80.9575,
    "region": "Asia-Pacific",
    "country": "India",
    "metro_area": "Lucknow",
    "certification": null,
    "wta_member": "No"
  },
  {
    "name": "ISRO Peenya",
    "latitude": 13.0347251,
    "longitude": 77.5117891,
    "region": "Asia-Pacific",
    "country": "India",
    "metro_area": "Bangalore",
    "certification": null,
    "wta_member": "No"
  },
  {
    "name": "ISS Seongnam",
    "latitude": 37.47195,
    "longitude": 127.14232,
    "region": "Asia-Pacific",
    "country": "South Korea",
    "metro_area": "Seoul",
    "certification": null,
    "wta_member": "No"
  },
  {
    "name": "ISTRAC Port Blair Island",
    "latitude": 11.6372277,
    "longitude": 92.7122214,
    "region": "Asia-Pacific",
    "country": "India",
    "metro_area": "South Andaman",
    "certification": null,
    "wta_member": "No"
  },
  {
    "name": "iTERA Global I.T. Solutions, Corp.",
    "latitude": 15.1912587,
    "longitude": 120.576354,
    "region": "Asia-Pacific",
    "country": "Philippines",
    "metro_area": "Angeles City",
    "certification": null,
    "wta_member": "No"
  },
  {
    "name": "JSAT Ibaraki Satellite Control Center ",
    "latitude": 36.5316666666667,
    "longitude": 140.373055555556,
    "region": "Asia-Pacific",
    "country": "Japan",
    "metro_area": "Tokyo",
    "certification": null,
    "wta_member": "No"
  },
  {
    "name": "JSAT Space Port North (PASCO Ltd.)",
    "latitude": 42.7749021,
    "longitude": 141.6244741,
    "region": "Asia-Pacific",
    "country": "Japan",
    "metro_area": "Hokkaido",
    "certification": null,
    "wta_member": "No"
  },
  {
    "name": "JSAT Space Port South (PASCO Ltd.)",
    "latitude": 26.1409452,
    "longitude": 127.6615503,
    "region": "Asia-Pacific",
    "country": "Japan",
    "metro_area": "Okinawa",
    "certification": null,
    "wta_member": null
  },
  {
    "name": "JSAT Yokohama",
    "latitude": 35.5055841,
    "longitude": 139.5139215,
    "region": "Asia-Pacific",
    "country": "Japan",
    "metro_area": "Yokohama",
    "certification": null,
    "wta_member": "No"
  },
  {
    "name": "KBZ Gateway Satellite Earth Station",
    "latitude": 17.24023,
    "longitude": 96.4629130000001,
    "region": "Asia-Pacific",
    "country": "Myanmar",
    "metro_area": "Yangon",
    "certification": null,
    "wta_member": "No"
  },
  {
    "name": "KDDI Ibaraki Satellite Comm. Center",
    "latitude": 36.699329,
    "longitude": 140.696081,
    "region": "Asia-Pacific",
    "country": "Japan",
    "metro_area": "Tokyo",
    "certification": null,
    "wta_member": "No"
  },
  {
    "name": "KDDI Yamaguchi Teleport",
    "latitude": 34.217124,
    "longitude": 131.556865,
    "region": "Asia-Pacific",
    "country": "Japan",
    "metro_area": "Yamaguchi",
    "certification": null,
    "wta_member": "No"
  },
  {
    "name": "KT Gwangjin-gu",
    "latitude": 37.537457,
    "longitude": 127.0888206,
    "region": "Asia-Pacific",
    "country": "South Korea",
    "metro_area": "Seoul",
    "certification": null,
    "wta_member": "No"
  },
  {
    "name": "LaoSat Vientiane Teleport (Asia Pacific Satellite Co. Ltd.",
    "latitude": 17.8700526,
    "longitude": 102.6838231,
    "region": "Asia-Pacific",
    "country": "Loas",
    "metro_area": "Vientiane",
    "certification": null,
    "wta_member": "No"
  },
  {
    "name": "Media Digital Distribution Teleport",
    "latitude": 3.16321,
    "longitude": 101.72174,
    "region": "Asia-Pacific",
    "country": "Malaysia",
    "metro_area": "Kuala Lumpur",
    "certification": null,
    "wta_member": "No"
  },
  {
    "name": "NELCO Limited (Tatanet)",
    "latitude": 19.105554,
    "longitude": 73.024294,
    "region": "Asia-Pacific",
    "country": "India",
    "metro_area": "Mumbai",
    "certification": null,
    "wta_member": "No"
  },
  {
    "name": "Netsat (Private) Limited",
    "latitude": 24.840704,
    "longitude": 67.0941330000001,
    "region": "Asia-Pacific",
    "country": "Pakistan ",
    "metro_area": "Karachi",
    "certification": null,
    "wta_member": "No"
  },
  {
    "name": "NSTPL Noida Teleport",
    "latitude": 28.518497,
    "longitude": 77.5077719999999,
    "region": "Asia-Pacific",
    "country": "India",
    "metro_area": "New Delhi",
    "certification": null,
    "wta_member": "No"
  },
  {
    "name": "Office des Postes et Télécommunications (OPT)",
    "latitude": -22.268446,
    "longitude": 166.411258,
    "region": "Asia-Pacific",
    "country": "New Caledonia",
    "metro_area": "Noumea",
    "certification": null,
    "wta_member": "No"
  },
  {
    "name": "Pasifik Satelit Nusantara Bakesi",
    "latitude": -6.326794,
    "longitude": 107.148328,
    "region": "Asia-Pacific",
    "country": "Indonesia",
    "metro_area": "Jakarta",
    "certification": null,
    "wta_member": "No"
  },
  {
    "name": "Philcomsat Pinugay Baras Rizal ",
    "latitude": 14.58454,
    "longitude": 121.293775,
    "region": "Asia-Pacific",
    "country": "Philippines",
    "metro_area": "Manila",
    "certification": null,
    "wta_member": "No"
  },
  {
    "name": "Planet Communications Asia Public Co., Ltd.",
    "latitude": 13.844797,
    "longitude": 100.632982,
    "region": "Asia-Pacific",
    "country": "Thailand",
    "metro_area": "Bangkok",
    "certification": null,
    "wta_member": "No"
  },
  {
    "name": "PT. Dwi Tunggal Putra (DTP) - Jakarta",
    "latitude": -6.2386491,
    "longitude": 106.8240784,
    "region": "Asia-Pacific",
    "country": "Indonesia",
    "metro_area": "Jakarta",
    "certification": null,
    "wta_member": "No"
  },
  {
    "name": "PTCL Earth Station Islamabad",
    "latitude": 33.768422,
    "longitude": 73.216414,
    "region": "Asia-Pacific",
    "country": "Pakistan ",
    "metro_area": "Islamabad",
    "certification": null,
    "wta_member": "No"
  },
  {
    "name": "PTCL Earth Station Karachi",
    "latitude": 25.193108,
    "longitude": 67.099274,
    "region": "Asia-Pacific",
    "country": "Pakistan ",
    "metro_area": "Karachi",
    "certification": null,
    "wta_member": "No"
  },
  {
    "name": "PTCL Gilgit",
    "latitude": 33.729448,
    "longitude": 73.090239,
    "region": "Asia-Pacific",
    "country": "Pakistan ",
    "metro_area": "Islamabad",
    "certification": null,
    "wta_member": "No"
  },
  {
    "name": "Sagarmatha (Kathmandu) Earth Station",
    "latitude": 27.688857,
    "longitude": 85.23827,
    "region": "Asia-Pacific",
    "country": "Nepal",
    "metro_area": "Kathmandu",
    "certification": null,
    "wta_member": "No"
  },
  {
    "name": "Scopetel Sdn Bhd Cyberjaya",
    "latitude": 2.91714,
    "longitude": 101.66189,
    "region": "Asia-Pacific",
    "country": "Malaysia",
    "metro_area": "Kuala Lumpur",
    "certification": null,
    "wta_member": "No"
  },
  {
    "name": "Sinosat (HK) Limited (CASC)",
    "latitude": 22.266444,
    "longitude": 114.2463868,
    "region": "Asia-Pacific",
    "country": "China",
    "metro_area": "Hong Kong",
    "certification": null,
    "wta_member": "No"
  },
  {
    "name": "SkyPerfecTelevision Meguro Media Center (Tokyo)",
    "latitude": 35.6283333333333,
    "longitude": 139.715555555556,
    "region": "Asia-Pacific",
    "country": "Japan",
    "metro_area": "Tokyo",
    "certification": null,
    "wta_member": "No"
  },
  {
    "name": "Solomon Telekom",
    "latitude": -9.4307791,
    "longitude": 159.9524674,
    "region": "Asia-Pacific",
    "country": "Soloman Islands",
    "metro_area": "Honiara",
    "certification": null,
    "wta_member": "No"
  },
  {
    "name": "Subic Bay Satellite Systems Incorporated",
    "latitude": 14.7847222222222,
    "longitude": 120.294722222222,
    "region": "Asia-Pacific",
    "country": "Philippines",
    "metro_area": "Manila",
    "certification": null,
    "wta_member": "No"
  },
  {
    "name": "Suparco Karachi ",
    "latitude": 24.94568,
    "longitude": 67.135841,
    "region": "Asia-Pacific",
    "country": "Pakistan ",
    "metro_area": "Karachi",
    "certification": null,
    "wta_member": "No"
  },
  {
    "name": "Super Net",
    "latitude": 24.82683,
    "longitude": 67.029077,
    "region": "Asia-Pacific",
    "country": "Pakistan ",
    "metro_area": "Karachi",
    "certification": null,
    "wta_member": "No"
  },
  {
    "name": "Sydney Teleport Services",
    "latitude": -33.865097,
    "longitude": 151.178959,
    "region": "Asia-Pacific",
    "country": "Australia",
    "metro_area": "Sydney",
    "certification": null,
    "wta_member": "No"
  },
  {
    "name": "Tata Ahemad Earth Station (VSNL)",
    "latitude": 30.1775,
    "longitude": 78.1044444444444,
    "region": "Asia-Pacific",
    "country": "India",
    "metro_area": "Dehradun",
    "certification": null,
    "wta_member": "No"
  },
  {
    "name": "Tata Chennai Teleport",
    "latitude": 13.130433,
    "longitude": 80.166524,
    "region": "Asia-Pacific",
    "country": "India",
    "metro_area": "Chennai",
    "certification": null,
    "wta_member": "No"
  },
  {
    "name": "Tata New Delhi",
    "latitude": 28.630919,
    "longitude": 77.207869,
    "region": "Asia-Pacific",
    "country": "India",
    "metro_area": "New Delhi",
    "certification": null,
    "wta_member": "No"
  },
  {
    "name": "Tata Pune Teleport",
    "latitude": 18.6041,
    "longitude": 73.8657,
    "region": "Asia-Pacific",
    "country": "India",
    "metro_area": "Pune",
    "certification": null,
    "wta_member": "No"
  },
  {
    "name": "Tata Sky Delhi Teleport",
    "latitude": 28.5427777777778,
    "longitude": 77.24,
    "region": "Asia-Pacific",
    "country": "India",
    "metro_area": "New Delhi",
    "certification": null,
    "wta_member": "No"
  },
  {
    "name": "Tatwah Smartech",
    "latitude": 39.8691707,
    "longitude": 116.4566687,
    "region": "Asia-Pacific",
    "country": "China",
    "metro_area": "Beijing",
    "certification": null,
    "wta_member": "No"
  },
  {
    "name": "Telecom Fiji Yaqara",
    "latitude": -17.4389057,
    "longitude": 177.9772341,
    "region": "Asia-Pacific",
    "country": "Fiji",
    "metro_area": "Suva",
    "certification": null,
    "wta_member": "No"
  },
  {
    "name": "Telecom Foundation/Pak Datacom Limited",
    "latitude": 33.682716,
    "longitude": 73.040964,
    "region": "Asia-Pacific",
    "country": "Pakistan ",
    "metro_area": "Islamabad",
    "certification": null,
    "wta_member": "No"
  },
  {
    "name": "Telecom NZ Warkworth Satellite Earth Station",
    "latitude": -36.432751,
    "longitude": 174.668127,
    "region": "Asia-Pacific",
    "country": "New Zealand",
    "metro_area": "Auckland",
    "certification": null,
    "wta_member": "No"
  },
  {
    "name": "Telekom Brunei Berhad (TelBru) - Telisai Satellite Earth Station",
    "latitude": 4.7235223,
    "longitude": 114.5912084,
    "region": "Asia-Pacific",
    "country": "Brunei",
    "metro_area": "Bandar Seri Begawan",
    "certification": null,
    "wta_member": "No"
  },
  {
    "name": "Telekom Malaysia Cyberjaya",
    "latitude": 2.940401,
    "longitude": 101.659078,
    "region": "Asia-Pacific",
    "country": "Malaysia",
    "metro_area": "Kuala Lumpur",
    "certification": null,
    "wta_member": "No"
  },
  {
    "name": "Telekomunikasi Indonesia Tbk. PT",
    "latitude": -6.898186,
    "longitude": 107.619581,
    "region": "Asia-Pacific",
    "country": "Indonesia",
    "metro_area": "Bandung",
    "certification": null,
    "wta_member": "No"
  },
  {
    "name": "Teleport Access Services TAS Linkou Teleport",
    "latitude": 25.083928,
    "longitude": 121.404906,
    "region": "Asia-Pacific",
    "country": "Taiwan",
    "metro_area": "Taipei",
    "certification": null,
    "wta_member": "No"
  },
  {
    "name": "Teleport Macau",
    "latitude": 22.113608,
    "longitude": 113.568619,
    "region": "Asia-Pacific",
    "country": "China",
    "metro_area": "Macau",
    "certification": null,
    "wta_member": "No"
  },
  {
    "name": "Telkomsat Satellite Master Control Station",
    "latitude": -6.4481158,
    "longitude": 106.9366011,
    "region": "Asia-Pacific",
    "country": "Indonesia",
    "metro_area": "Jakarta",
    "certification": null,
    "wta_member": "No"
  },
  {
    "name": "Telkomsat Satellite Transmission Control Station",
    "latitude": -6.5425105,
    "longitude": 106.7720997,
    "region": "Asia-Pacific",
    "country": "Indonesia",
    "metro_area": "Jakarta",
    "certification": null,
    "wta_member": "No"
  },
  {
    "name": "Thaicom - Ladlumkaew, Patumthani Teleport ",
    "latitude": 14.0856111111111,
    "longitude": 100.421694444444,
    "region": "Asia-Pacific",
    "country": "Thailand",
    "metro_area": "Bangkok",
    "certification": null,
    "wta_member": "No"
  },
  {
    "name": "Thaicom- Nonthaburi Teleport",
    "latitude": 13.859119,
    "longitude": 100.514168,
    "region": "Asia-Pacific",
    "country": "Thailand",
    "metro_area": "Bangkok",
    "certification": null,
    "wta_member": "No"
  },
  {
    "name": "Thimphu Bhutan Earth Station",
    "latitude": 27.481587,
    "longitude": 89.634134,
    "region": "Asia-Pacific",
    "country": "Bhutan",
    "metro_area": "Thimphu",
    "certification": null,
    "wta_member": "No"
  },
  {
    "name": "Todoroki Satellite Transmission Center (Tokyo)",
    "latitude": 35.6088888888889,
    "longitude": 139.65,
    "region": "Asia-Pacific",
    "country": "Japan",
    "metro_area": "Tokyo",
    "certification": null,
    "wta_member": "No"
  },
  {
    "name": "Tower Bersama Group Jakarta",
    "latitude": -6.211257,
    "longitude": 106.821285,
    "region": "Asia-Pacific",
    "country": "Indonesia",
    "metro_area": "Jakarta",
    "certification": null,
    "wta_member": "No"
  },
  {
    "name": "Transpacific Broadband Group International, Clark, Pampanga - TBGI Angeles City",
    "latitude": 15.1708333333333,
    "longitude": 120.505833333333,
    "region": "Asia-Pacific",
    "country": "Philippines",
    "metro_area": "Angeles City",
    "certification": null,
    "wta_member": "No"
  },
  {
    "name": "TSGI Cyberport",
    "latitude": 2.937653,
    "longitude": 101.657909,
    "region": "Asia-Pacific",
    "country": "Malaysia",
    "metro_area": "Kuala Lumpur",
    "certification": null,
    "wta_member": "No"
  },
  {
    "name": "Verizon - Pulantat",
    "latitude": 13.4184598,
    "longitude": 144.7517276,
    "region": "Asia-Pacific",
    "country": "Gaum",
    "metro_area": "Pulantat",
    "certification": null,
    "wta_member": "No"
  },
  {
    "name": "Videocon d2h Noida",
    "latitude": 28.503846,
    "longitude": 77.475672,
    "region": "Asia-Pacific",
    "country": "India",
    "metro_area": "New Delhi",
    "certification": null,
    "wta_member": "No"
  },
  {
    "name": "VinaSat Backup TT&C Ho Chi Minh City",
    "latitude": 11.05748,
    "longitude": 106.62088,
    "region": "Asia-Pacific",
    "country": "Vietnam",
    "metro_area": "Ho Chi Minh",
    "certification": null,
    "wta_member": "No"
  },
  {
    "name": "VinaSat Primary TT&C Hanoi",
    "latitude": 21.04906,
    "longitude": 105.68843,
    "region": "Asia-Pacific",
    "country": "Vietnam",
    "metro_area": "Hanoi",
    "certification": null,
    "wta_member": "No"
  },
  {
    "name": "Wateen Telecom",
    "latitude": 31.5250845,
    "longitude": 74.3475401,
    "region": "Asia-Pacific",
    "country": "Pakistan ",
    "metro_area": "Lahore",
    "certification": null,
    "wta_member": "No"
  },
  {
    "name": "WebSatMedia",
    "latitude": 1.322579,
    "longitude": 103.9208552,
    "region": "Asia-Pacific",
    "country": "Singapore",
    "metro_area": "Singapore",
    "certification": null,
    "wta_member": "No"
  },
  {
    "name": "Yatanarpon Teleport",
    "latitude": 21.871446,
    "longitude": 96.35043,
    "region": "Asia-Pacific",
    "country": "Myanmar",
    "metro_area": "Mandalay",
    "certification": null,
    "wta_member": "No"
  },
  {
    "name": "Adisam Telecom",
    "latitude": 44.4255027,
    "longitude": 26.1049547,
    "region": "Europe",
    "country": "Romania",
    "metro_area": "Bucharest",
    "certification": null,
    "wta_member": "No"
  },
  {
    "name": "Airbus (Paradigm) SGS Colerne",
    "latitude": 51.444,
    "longitude": -2.2771,
    "region": "Europe",
    "country": "United Kingdom",
    "metro_area": "Bath",
    "certification": null,
    "wta_member": "No"
  },
  {
    "name": "Airbus (Paradigm) SGS Oakhanger",
    "latitude": 51.114117,
    "longitude": -0.894897,
    "region": "Europe",
    "country": "United Kingdom",
    "metro_area": "Farnborough",
    "certification": null,
    "wta_member": "No"
  },
  {
    "name": "Airbus Aussaguel (Marlink)",
    "latitude": 43.42861,
    "longitude": 1.497207,
    "region": "Europe",
    "country": "France",
    "metro_area": "Toulouse",
    "certification": null,
    "wta_member": "No"
  },
  {
    "name": "Airbus Eik Teleport (Marlink)",
    "latitude": 58.538553,
    "longitude": 6.46792,
    "region": "Europe",
    "country": "Norway",
    "metro_area": "Eik",
    "certification": null,
    "wta_member": "No"
  },
  {
    "name": "Altegroskay Bear Lakes",
    "latitude": 55.866731,
    "longitude": 37.953876,
    "region": "Europe",
    "country": "Russia",
    "metro_area": "Moscow",
    "certification": null,
    "wta_member": "No"
  },
  {
    "name": "A-Medialynx Berlin Teleport",
    "latitude": 52.499628,
    "longitude": 13.457125,
    "region": "Europe",
    "country": "Germany",
    "metro_area": "Berlin",
    "certification": null,
    "wta_member": "No"
  },
  {
    "name": "Antech Space San Giovanni la Punta",
    "latitude": 37.57347,
    "longitude": 15.09978,
    "region": "Europe",
    "country": "Italy",
    "metro_area": "Catania",
    "certification": null,
    "wta_member": "No"
  },
  {
    "name": "Antenna Hungaria",
    "latitude": 47.4917378,
    "longitude": 18.9782193,
    "region": "Europe",
    "country": "Hungary",
    "metro_area": "Budapest",
    "certification": null,
    "wta_member": "No"
  },
  {
    "name": "AthinaSat Cyprus (Defunct?)",
    "latitude": 34.801667,
    "longitude": 33.371389,
    "region": "Europe",
    "country": "Cyprus",
    "metro_area": "Nicosia",
    "certification": null,
    "wta_member": "No"
  },
  {
    "name": "BCE (Broadcasting Center Europe) Junglinster Teleport",
    "latitude": 49.7186666,
    "longitude": 6.2638056,
    "region": "Europe",
    "country": "Luxembourg",
    "metro_area": "Luxembourg",
    "certification": null,
    "wta_member": "No"
  },
  {
    "name": "BCE (Broadcasting Center Europe) Kirchberg",
    "latitude": 49.637543,
    "longitude": 6.163234,
    "region": "Europe",
    "country": "Luxembourg",
    "metro_area": "Luxembourg",
    "certification": null,
    "wta_member": "No"
  },
  {
    "name": "Belintersat Stan'kovo",
    "latitude": 53.638987,
    "longitude": 27.209935,
    "region": "Europe",
    "country": "Belarus",
    "metro_area": "Minsk",
    "certification": null,
    "wta_member": "No"
  },
  {
    "name": "BICS La Ciotat Teleport",
    "latitude": 43.2020094,
    "longitude": 5.60072479999997,
    "region": "Europe",
    "country": "France",
    "metro_area": "Marseille",
    "certification": null,
    "wta_member": "No"
  },
  {
    "name": "BSS Lessive Teleport",
    "latitude": 50.129857,
    "longitude": 5.145344,
    "region": "Europe",
    "country": "Belgium",
    "metro_area": "Lessive",
    "certification": null,
    "wta_member": "No"
  },
  {
    "name": "BSS Liedekerke Teleport",
    "latitude": 50.863288,
    "longitude": 4.109689,
    "region": "Europe",
    "country": "Belgium",
    "metro_area": "Brussels",
    "certification": null,
    "wta_member": "No"
  },
  {
    "name": "BT Adastral Park",
    "latitude": 52.0597934,
    "longitude": 1.2871867,
    "region": "Europe",
    "country": "United Kingdom",
    "metro_area": "Ipswich",
    "certification": null,
    "wta_member": "No"
  },
  {
    "name": "BT Madley Teleport",
    "latitude": 52.03106,
    "longitude": -2.840026,
    "region": "Europe",
    "country": "United Kingdom",
    "metro_area": "Hereford",
    "certification": null,
    "wta_member": "No"
  },
  {
    "name": "Cable & Wireless Whitehill Satellite Earth Station",
    "latitude": 51.864327,
    "longitude": -1.306278,
    "region": "Europe",
    "country": "United Kingdom",
    "metro_area": "Oxford",
    "certification": null,
    "wta_member": "No"
  },
  {
    "name": "Castor Networks Burum",
    "latitude": 53.284382,
    "longitude": 6.215291,
    "region": "Europe",
    "country": "Netherlands",
    "metro_area": "Amsterdam",
    "certification": null,
    "wta_member": "No"
  },
  {
    "name": "CenturyLink (Level 3) Berlin",
    "latitude": 52.45275,
    "longitude": 13.42876,
    "region": "Europe",
    "country": "Germany",
    "metro_area": "Berlin",
    "certification": null,
    "wta_member": "No"
  },
  {
    "name": "CenturyLink (Level 3) London",
    "latitude": 51.5149229,
    "longitude": -0.103426899999931,
    "region": "Europe",
    "country": "United Kingdom",
    "metro_area": "London",
    "certification": null,
    "wta_member": "No"
  },
  {
    "name": "Cobbett Hill Guildford",
    "latitude": 51.271741,
    "longitude": -0.649148,
    "region": "Europe",
    "country": "United Kingdom",
    "metro_area": "London",
    "certification": null,
    "wta_member": "No"
  },
  {
    "name": "Constellation Networks Oxieparabolen Teleport ",
    "latitude": 55.547505,
    "longitude": 13.078388,
    "region": "Europe",
    "country": "Sweden",
    "metro_area": "Malmo",
    "certification": null,
    "wta_member": "No"
  },
  {
    "name": "EBU (European Broadcasting Union) Geneva",
    "latitude": 46.231734,
    "longitude": 6.126098,
    "region": "Europe",
    "country": "Switzerland",
    "metro_area": "Geneva",
    "certification": null,
    "wta_member": "No"
  },
  {
    "name": "Emperion A/S Herlev",
    "latitude": 55.715281,
    "longitude": 12.452062,
    "region": "Europe",
    "country": "Denmark",
    "metro_area": "Copenhagen",
    "certification": null,
    "wta_member": "No"
  },
  {
    "name": "FLYCOM LTD",
    "latitude": 55.806375,
    "longitude": 37.704674,
    "region": "Europe",
    "country": "Russia",
    "metro_area": "Moscow",
    "certification": null,
    "wta_member": "No"
  },
  {
    "name": "GeoTelecommunications (GT Telecom)",
    "latitude": 55.8069445,
    "longitude": 37.6534644,
    "region": "Europe",
    "country": "Russia",
    "metro_area": "Moscow",
    "certification": null,
    "wta_member": "No"
  },
  {
    "name": "GiTy, a.s.",
    "latitude": 49.1736027,
    "longitude": 16.6222393,
    "region": "Europe",
    "country": "Czech Republic",
    "metro_area": "Brno",
    "certification": null,
    "wta_member": "No"
  },
  {
    "name": "Global Eagle (EMC) Anuvu Teleport",
    "latitude": 47.898962,
    "longitude": 11.115021,
    "region": "Europe",
    "country": "Germany",
    "metro_area": "Munich",
    "certification": null,
    "wta_member": "No"
  },
  {
    "name": "Global Telesat SA",
    "latitude": 38.3467765,
    "longitude": -0.5378097,
    "region": "Europe",
    "country": "Spain",
    "metro_area": "Alicante",
    "certification": null,
    "wta_member": "No"
  },
  {
    "name": "Globalstar Pavlovsky Posad",
    "latitude": 55.7586111,
    "longitude": 38.6594444,
    "region": "Europe",
    "country": "Russia",
    "metro_area": "Moscow",
    "certification": null,
    "wta_member": "No"
  },
  {
    "name": "GlobalTT Louvain-la-Neuve Teleport",
    "latitude": 50.663371,
    "longitude": 4.626734,
    "region": "Europe",
    "country": "Belgium",
    "metro_area": "Brussels",
    "certification": null,
    "wta_member": "No"
  },
  {
    "name": "Gloway - Overon",
    "latitude": 40.398043,
    "longitude": -3.790767,
    "region": "Europe",
    "country": "Spain",
    "metro_area": "Madrid",
    "certification": null,
    "wta_member": "No"
  },
  {
    "name": "GMDS Pristina Teleport",
    "latitude": 42.659856,
    "longitude": 21.155064,
    "region": "Europe",
    "country": "Kosovo",
    "metro_area": "Pristina",
    "certification": null,
    "wta_member": "No"
  },
  {
    "name": "Hungaro DigiTel Kft.",
    "latitude": 47.379289,
    "longitude": 19.005119,
    "region": "Europe",
    "country": "Hungary",
    "metro_area": "Budapest",
    "certification": null,
    "wta_member": "No"
  },
  {
    "name": "IMG Studios Stockley Park",
    "latitude": 51.508138,
    "longitude": -0.4453456,
    "region": "Europe",
    "country": "United Kingdom",
    "metro_area": "London",
    "certification": null,
    "wta_member": "No"
  },
  {
    "name": "Inmarsat (Marsat) Nudol Station",
    "latitude": 56.15,
    "longitude": 36.5033,
    "region": "Europe",
    "country": "Russia",
    "metro_area": "Moscow",
    "certification": null,
    "wta_member": "No"
  },
  {
    "name": "Inmarsat (Stratos Global) Burum Teleport",
    "latitude": 53.284537,
    "longitude": 6.216152,
    "region": "Europe",
    "country": "Netherlands",
    "metro_area": "Amsterdam",
    "certification": null,
    "wta_member": "No"
  },
  {
    "name": "Inmarsat London ",
    "latitude": 51.52548,
    "longitude": -0.086432,
    "region": "Europe",
    "country": "United Kingdom",
    "metro_area": "London",
    "certification": null,
    "wta_member": "No"
  },
  {
    "name": "InSat Saarbruecken Teleport",
    "latitude": 49.239513,
    "longitude": 6.951301,
    "region": "Europe",
    "country": "Germany",
    "metro_area": "Saarbruecken",
    "certification": null,
    "wta_member": "No"
  },
  {
    "name": "Iridium Svalbard (colo SvalSat)",
    "latitude": 78.230906,
    "longitude": 15.383767,
    "region": "Europe",
    "country": "Norway",
    "metro_area": "Svalbard",
    "certification": null,
    "wta_member": "No"
  },
  {
    "name": "Irish Natinal Space Centre (Elfordstown)",
    "latitude": 51.953535,
    "longitude": -8.175517,
    "region": "Europe",
    "country": "Ireland",
    "metro_area": "Cork",
    "certification": null,
    "wta_member": "No"
  },
  {
    "name": "Kongsberg Earth Station, Troll Station",
    "latitude": -72.011643,
    "longitude": 2.534985,
    "region": "Europe",
    "country": "Norway",
    "metro_area": "Svalbard",
    "certification": null,
    "wta_member": "No"
  },
  {
    "name": "Kongsberg Satellite Services, SvalSat",
    "latitude": 78.229206,
    "longitude": 15.390987,
    "region": "Europe",
    "country": "Norway",
    "metro_area": "Longyearbyen",
    "certification": null,
    "wta_member": "No"
  },
  {
    "name": "Kongsberg Satellite Services, Tromso",
    "latitude": 69.661827,
    "longitude": 18.941257,
    "region": "Europe",
    "country": "Norway",
    "metro_area": "Tromso",
    "certification": null,
    "wta_member": "No"
  },
  {
    "name": "Link Satellite (Defunct?)",
    "latitude": 43.837326,
    "longitude": 10.606926,
    "region": "Europe",
    "country": "Italy",
    "metro_area": "Pisa",
    "certification": null,
    "wta_member": "No"
  },
  {
    "name": "LinkExpress Kiev Teleport (Unverified Location) ",
    "latitude": 50.368631,
    "longitude": 30.70895,
    "region": "Europe",
    "country": "Ukraine",
    "metro_area": "Kiev",
    "certification": null,
    "wta_member": "No"
  },
  {
    "name": "LuckyLink Teleport Kiev",
    "latitude": 50.434835,
    "longitude": 30.52297,
    "region": "Europe",
    "country": "Ukraine",
    "metro_area": "Kiev",
    "certification": null,
    "wta_member": "No"
  },
  {
    "name": "Marlink (Vizada) Bratislava Teleport",
    "latitude": 48.180166,
    "longitude": 17.139905,
    "region": "Europe",
    "country": "Slovakia",
    "metro_area": "Bratislava",
    "certification": null,
    "wta_member": "No"
  },
  {
    "name": "Maspalomas XTAR-EUR",
    "latitude": 27.763893,
    "longitude": -15.632764,
    "region": "Europe",
    "country": "Spain",
    "metro_area": "Las Palmas",
    "certification": null,
    "wta_member": "No"
  },
  {
    "name": "Milano Teleport S.P.A.",
    "latitude": 45.316421,
    "longitude": 9.17959300000007,
    "region": "Europe",
    "country": "Italy",
    "metro_area": "Milan",
    "certification": null,
    "wta_member": "No"
  },
  {
    "name": "M-Link (Orascom) Nivelles Belgium",
    "latitude": 50.587399,
    "longitude": 4.366914,
    "region": "Europe",
    "country": "Belgium",
    "metro_area": "Nivelles",
    "certification": null,
    "wta_member": "No"
  },
  {
    "name": "MTI Teleport",
    "latitude": 48.18993,
    "longitude": 11.65703,
    "region": "Europe",
    "country": "Germany",
    "metro_area": "Munich",
    "certification": null,
    "wta_member": "No"
  },
  {
    "name": "mts (Telekom Srbija) Ivanjica",
    "latitude": 43.628374,
    "longitude": 20.1632482,
    "region": "Europe",
    "country": "Serbia",
    "metro_area": "Ivanjica",
    "certification": null,
    "wta_member": "No"
  },
  {
    "name": "NEP (DigitalSpace) Belfast",
    "latitude": 54.589002,
    "longitude": -5.924999,
    "region": "Europe",
    "country": "Ireland",
    "metro_area": "Belfast",
    "certification": null,
    "wta_member": "No"
  },
  {
    "name": "NEP (SIS Live) MediaCity Teleport",
    "latitude": 53.471841,
    "longitude": -2.3046291,
    "region": "Europe",
    "country": "United Kingdom",
    "metro_area": "Manchester",
    "certification": null,
    "wta_member": "No"
  },
  {
    "name": "NEP (SIS Live) Milton Keynes Teleport",
    "latitude": 52.035819,
    "longitude": -0.680246000000011,
    "region": "Europe",
    "country": "United Kingdom",
    "metro_area": "London",
    "certification": null,
    "wta_member": "No"
  },
  {
    "name": "Neterra Ruse Teleport",
    "latitude": 43.8516666666667,
    "longitude": 25.9519444444445,
    "region": "Europe",
    "country": "Bulgaria",
    "metro_area": "Ruse",
    "certification": null,
    "wta_member": "No"
  },
  {
    "name": "Neterra Teleport Sofia",
    "latitude": 42.6561111111111,
    "longitude": 23.3691666666666,
    "region": "Europe",
    "country": "Bulgaria",
    "metro_area": "Sofia",
    "certification": null,
    "wta_member": "No"
  },
  {
    "name": "OBK MEI Dolgoye Ledovo (Bear Lakes, Moscow)",
    "latitude": 55.86252,
    "longitude": 37.95501,
    "region": "Europe",
    "country": "Russia",
    "metro_area": "Moscow",
    "certification": null,
    "wta_member": "No"
  },